OPIS Truckstop ID,Truckstop Name,Address,City,State,Rack ID,Retail Price,latitude,longitude
7,WOODSHED OF BIG CABIN,"I-44, EXIT 283 & US-69",Big Cabin,OK,307,3.00733333,35.25364,-99.646878
9,KWIK TRIP #796,"I-94, EXIT 143 & US-12 & SR-21",Tomah,WI,420,3.28733333,43.978526,-90.51355
20,PILOT TRAVEL CENTER #1243,"I-8, EXIT 119 & SR-85",Gila Bend,AZ,930,3.899,32.960027,-112.702211
20,PILOT #1243,"I-8, EXIT 119 & SR-85",Gila Bend,AZ,930,3.899,32.960027,-112.702211
28,LITTLEFIELD EXPRESS #2,"I-540, EXIT 12 & US-71",Fort Smith,AR,645,3.399,35.372017,-94.386
35,ACI TRUCK STOP,US-46,Columbia,NJ,90,3.079,40.78096,-74.385611
36,SHENANDOAH TRUCK CENTER,"I-81, EXIT 273 & SR-703/SR-292",Mount Jackson,VA,60,2.899,38.743242,-78.646498
44,CIRCLE K #2612042,"I-35,  EXIT 271",Jarrell,TX,595,2.919,30.82639,-97.606035
46,PETRO STOPPING CENTER #348,"I-85,  EXIT 22 & CR-138",Shorter,AL,720,3.154,45.638409,-122.5308
49,TA SEYMOUR TRAVEL CENTER,"I-65, EXIT 50 & US-50 & US-31",Seymour,IN,415,3.959,38.959251,-85.888222
50,TA COUNCIL BLUFFS TRAVEL CENTER,"I-29 & I-80, EXIT 3",Council Bluffs,IA,319,3.72566666,41.230526,-95.838091
56,TOPS TRUCK STOP,"I-94, EXIT 182 & US-83",Sterling,ND,390,3.51566666,46.301726,-98.949425
75,Good 2 Go #709,US-50,Montrose,CO,810,3.424,38.486987,-107.868585
77,OASIS TRAVEL PLAZA,US-13,Laurel,DE,243,3.229,38.555203,-75.568254
79,DELAWARE TRUCK PLAZA,US-13 & US-40,New Castle                              ,DE,243,3.249,39.664685,-75.566167
81,One9 #89,"I-75, EXIT 224",Ellenton,FL,225,3.439,27.526708,-82.52277
85,DOWNIEVILLE FUEL STOP,"I-70, EXIT 234",Dumont,CO,800,3.459,39.76471,-105.60028
91,MOLLYS FOOD & FUEL,"I-20 & ST 22, EXIT 55",Crawfordville                           ,GA,135,3.499,34.065201,-83.984556
105,TA SAGINAW I 75 TRAVEL CENTER,"I-75, EXIT 144-B",Bridgeport,MI,260,3.269,43.37888,-83.89361
105,TA SAGINAW I 75 TRAVEL CENTER,"I-75, EXIT 144-B",Bridgeport,MI,260,3.339,43.37888,-83.89361
105,TA SAGINAW I 75 TRAVEL CENTER,"I-75, EXIT 144-B",Bridgeport,MI,260,3.429,43.37888,-83.89361
105,TA SAGINAW I 75 TRAVEL CENTER,"I-75, EXIT 144-B",Bridgeport,MI,260,3.289,43.37888,-83.89361
105,TA SAGINAW I 75 TRAVEL CENTER,"I-75, EXIT 144-B",Bridgeport,MI,260,3.399,43.37888,-83.89361
105,TA SAGINAW I 75 TRAVEL CENTER,"I-75, EXIT 144-B",Bridgeport,MI,260,3.299,43.37888,-83.89361
118,Lupton Truck Stop #567,"I-40, EXIT 359",Lupton,AZ,580,3.299,35.354882,-109.052124
121,PETRO STOPPING CENTER #306,"I-10, EXIT 200",Eloy,AZ,930,3.474,32.778688,-111.596545
127,CIRCLE K #4700095,US-41,Henderson,KY,340,3.609,37.884075,-87.56224
128,THE EFFINGHAM CHROME SHOP,"I-57 & I-70, EXIT 159",Effingham                               ,IL,510,3.399,41.791171,-87.586713
128,THE EFFINGHAM CHROME SHOP,"I-57 & I-70, EXIT 159",Effingham                               ,IL,510,3.349,41.791171,-87.586713
128,THE EFFINGHAM CHROME SHOP,"I-57 & I-70, EXIT 159",Effingham                               ,IL,510,3.549,41.791171,-87.586713
135,LOVES TRAVEL STOP #766,"I-80, EXIT 27",Atkinson,IL,290,3.589,41.464864,-90.036814
135,LOVES TRAVEL STOP #766,"I-80, EXIT 27",Atkinson,IL,290,3.389,41.464864,-90.036814
135,LOVES TRAVEL STOP #766,"I-80, EXIT 27",Atkinson,IL,290,3.449,41.464864,-90.036814
147,SPEEDWAY #8039,"I-69, EXIT 234 & SR-67",Daleville,IN,375,3.624,33.03251,-116.883798
149,RAYS TRUCK WASH,"I-69, EXIT 309 & US-30",Fort Wayne                              ,IN,370,3.59233333,41.017558,-85.171635
151,CUBBYS #2101,"I-80, EXIT 211 & SR-47",Gothenburg,NE,475,3.13233333,40.930235,-100.100822
159,PILOT TRAVEL CENTER #87,"I-10, EXIT 343",Jacksonville,FL,75,3.859,30.369914,-81.660992
159,PILOT TRAVEL CENTERS #87,"I-10, EXIT 343",Jacksonville,FL,75,3.859,30.369914,-81.660992
160,PILOT TRAVEL CENTERS #79,"I-12, EXIT 10 AT MILE 10",Denham Springs                          ,LA,600,3.23233333,30.469044,-90.960085
164,FLYING J TRAVEL PLAZA #650,"I-94, EXIT 15 B",Lake Station                            ,IN,365,3.809,41.579279,-87.25305
167,FLYING J TRAVEL PLAZA #653,RT 2 & I-65 EXIT 240,Hebron,IN,365,3.43566666,41.321194,-87.198978
174,Hop-In Food Stores,US-59 & SR-224,Nacogdoches                             ,TX,618,2.859,41.151909,-81.386869
184,SAPP BROS TRAVEL CENTER,"I-29 & I-80, EXIT 1B",Council Bluffs,IA,486,3.719,41.230526,-95.838091
186,COFFEE CUP FUEL STOP #5,"I-90, EXIT 154 & US-16",Moorcroft                               ,WY,822,3.239,42.849754,-106.323386
187,DUDLEYS CORNER,"I-35, EXIT 165 & SR-3",Latimer,IA,433,3.23233333,42.553664,-94.993346
191,KUM & GO #0302,"I-35, EXIT 193 & SR 106",Clear Lake,IA,433,3.18566666,43.13372,-93.365025
192,Brew Stuart Truckstop,"I-80, EXIT 93",Stuart                                  ,IA,320,3.099,41.500039,-94.31861
195,PETRO STOPPING CENTER #311,"I-40 & I-55, EXIT 280",West Memphis,AR,435,3.36733333,35.150295,-90.134052
198,SINCLAIR,"I-76, EXIT 115",Atwood,CO,800,3.299,40.549574,-103.274594
199,PETRO STOPPING CENTER #366,"I-70, EXIT 252",Salina,KS,523,3.80566666,38.82358,-97.610411
203,PILOT TRAVEL CENTER #31,"I-80/94, EXIT 2",Highland,IN,365,3.829,41.551826,-87.461181
203,PILOT TRAVEL CENTERS #31,"I-80/94, EXIT 2",Highland,IN,365,3.799,41.551826,-87.461181
207,MARATHON,SR-32,Sardinia                                ,OH,300,3.56566666,39.004754,-83.80519
216,CIRCLE K #2721593,"I-10, EXIT 50",Ocean Springs,MS,715,3.41566666,30.404027,-88.788015
217,NORTH 9TH 24/7,"I-70, EXIT 252",Salina,KS,523,3.02566666,38.82358,-97.610411
231,DERBY CITYS TRUCK PLAZA,"I-75, EXIT 62 & US-25",Mount Vernon,KY,410,2.999,37.5806,-87.35435
235,PILOT TRAVEL CENTERS #92,"I-75, EXIT 358",Ocala,FL,225,3.359,29.19339,-82.136635
235,PILOT TRAVEL CENTER #92,"I-75, EXIT 358",Ocala,FL,225,3.41233333,29.19339,-82.136635
240,LA 1 SOUTH TRUCKSTOP,"I-10, EXIT 153 & SR-1",Port Allen,LA,600,3.039,47.891346,-122.732318
243,SAVE,US-41 & SR-10,Lake Village,IN,399,3.179,40.755633,-73.945481
244,BIG D TRUCK TRAVEL PLAZA,"I-10, EXIT 92 & SR-95",Duson,LA,725,2.98233333,32.694418,-114.473179
248,Mardi Gras Truck Stop,"I-10, EXIT 236",New Orleans,LA,725,3.729,30.056708,-89.889852
250,GOLDEN OX TRUCK STOP,"I-70/US-40, EXIT 159 & US-183",Hays,KS,523,3.499,38.880051,-99.323766
253,LOVES TRAVEL STOP #450,"I-40, EXIT 280 & I-55, EXIT 4",West Memphis,AR,435,3.32566666,37.723089,-122.446977
256,BFS FOODS #66,"I-68/US-40, EXIT 22 & US-219",Grantsville                             ,MD,165,3.899,39.699558,-79.158698
257,PILOT TRAVEL CENTER #917- TOWN PUMP,I-15 & 31ST STREET EXIT 277,Great Falls                             ,MT,815,3.63566666,47.529455,-111.235626
263,CASEYS #3956,I-94 EXIT 16,Bridgman,MI,465,3.559,41.939308,-86.567562
267,CORNER MARKET #117,SR-154 & SR-129,Dodge City,KS,357,3.399,34.610644,-120.05879
269,PILOT TRAVEL CENTERS #24,"I-75, EXIT 15",Monroe                                  ,MI,325,3.299,40.31678,-74.41626
269,PILOT TRAVEL CENTERS #24,"I-75, EXIT 15",Monroe                                  ,MI,325,3.249,40.31678,-74.41626
269,PILOT TRAVEL CENTERS #24,"I-75, EXIT 15",Monroe                                  ,MI,325,3.439,40.31678,-74.41626
269,PILOT TRAVEL CENTERS #24,"I-75, EXIT 15",Monroe                                  ,MI,325,3.349,40.31678,-74.41626
269,PILOT TRAVEL CENTERS #24,"I-75, EXIT 15",Monroe                                  ,MI,325,3.559,40.31678,-74.41626
278,CARLISLE PLAZA,US-41,Carlisle,IN,510,3.499,38.962723,-87.400079
281,CIRCLE K #4700065,"I-65, EXIT 76 & US-31",Taylorsville,IN,375,3.399,40.71118,-78.97642
289,LOVES TRAVEL STOP #173,"I-70, MM 209",Lawrence,KS,553,3.229,38.954795,-95.260629
292,PETES #56,US-169 & CR-5000,Cherryvale,KS,307,3.23233333,25.826458,-80.121597
293,LOVES TRAVEL STOP #176,"I-35, MILE MARKER 97",Matfield Green,KS,336,3.25566666,38.160232,-96.562612
304,FL Roberts,"I-91, EXIT 4",Springfield,MA,100,3.599,42.118225,-72.539526
309,QUIKTRIP #231,"I-635, EXIT 3",Kansas City,KS,400,3.199,39.113581,-94.630146
323,SAPP BROS TRAVEL CENTER,"I-80, EXIT 126",Ogallala,NE,475,3.46566666,41.129278,-101.722911
326,FLYING J TRAVEL PLAZA #748,"I-15, EXIT 357",Willard                                 ,UT,835,3.749,41.414026,-112.044646
341,TA JACKSONVILLE SOUTH TRAVEL CENTER,"I-95, EXIT 329",Saint Johns,FL,75,3.469,29.913888,-81.41394
347,7-ELEVEN #40514,I-90/80-IN TOLL RD MM 22E,Portage,IN,365,3.99066666,41.584252,-87.183278
358,TA BINGHAMTON TRAVELCENTER,"I-81N, EXIT 2W & I-81S, EXIT 3",Binghamton,NY,32,3.769,42.097994,-75.917039
358,TA BINGHAMTON TRAVELCENTER,"I-81N, EXIT 2W & I-81S, EXIT 3",Binghamton,NY,32,3.689,42.097994,-75.917039
358,TA BINGHAMTON TRAVELCENTER,"I-81N, EXIT 2W & I-81S, EXIT 3",Binghamton,NY,32,3.699,42.097994,-75.917039
358,TA BINGHAMTON TRAVELCENTER,"I-81N, EXIT 2W & I-81S, EXIT 3",Binghamton,NY,32,3.739,42.097994,-75.917039
361,CIRCLE K #2726293,"I-295, EXIT 25",Jacksonville,FL,75,3.31566666,30.369914,-81.660992
368,WILTON TRAVEL PLAZA,"I-87, EXIT 16",Gansevoort                              ,NY,12,3.749,43.19618,-73.65178
368,WILTON TRAVEL PLAZA,"I-87, EXIT 16",Gansevoort                              ,NY,12,3.799,43.19618,-73.65178
372,GAS DEPOT,"I-94, EXIT 5",Hammond,IN,365,3.999,41.593176,-87.502724
381,7-Eleven #41830,US-69 & US-135,Jacksonville,TX,630,2.91566666,31.961001,-95.262445
387,Circle K #2709664,"I-8, EXIT 12",Yuma,AZ,930,3.489,32.553325,-114.510731
388,Pilot Travel Centers #14,"I-71, EXIT 131",Sunbury,OH,315,3.719,39.61311,-84.36578
391,PILOT TRAVEL CENTERS #13,"I-71, EXIT 209",Seville,OH,305,3.699,41.016563,-81.868423
403,TRUCKOMAT OF HEBRON,"I-70, EXIT 126 & SR-37",Hebron,OH,315,3.429,40.290233,-83.031788
407,FUEL MART #641,"I-80 & I-280, EXIT 71",Perrysburg                              ,OH,550,3.499,39.211107,-84.694807
421,PETRO STOPPING CENTER #316,"I-40 & I-35, EXIT 127",Oklahoma City,OK,483,3.30233333,35.45757,-97.620521
424,E EXPRESS,"I-40, EXIT 166",Choctaw,OK,483,2.899,35.479513,-97.265703
425,Neighbors Express,"I-16, EXIT 51",Dublin                                  ,GA,85,3.299,32.53877,-82.921248
442,WESTERN COOP,US-385 & SR-2,Alliance,NE,795,3.324,41.236828,-96.395908
455,MR FUEL #753,"I-95, EXIT 104 & SR-207",Ruther Glen,VA,180,3.26566666,39.409179,-83.026579
456,THE COUNTRY OASIS,US-24,Woodburn                                ,IN,370,3.399,41.125011,-84.851654
458,HAPPY HILLS GAS & COFFEE,I-29 EXIT 110,Rock Port,MO,400,3.399,40.410496,-95.52837
460,TRUCK STOP 44,I-20 EXIT 44,Gilbert,SC,135,3.079,33.924078,-81.392968
461,SPINX #271,"I-26, EXIT 145 & US-601",Orangeburg,SC,42,3.26233333,33.496498,-80.862668
469,LOAF N JUG #750010,US-160 & SR-17,Alamosa,CO,803,3.259,39.97486,-105.157478
474,KEWANEE 1 STOP,"I-20, EXIT 169 & US-80",Toomsuba,MS,705,3.299,27.930099,-82.730217
478,GASTRAK OF PEMBINA,"I-29, EXIT 215",Pembina                                 ,ND,355,3.299,48.771848,-97.551796
483,ALLSUPS #2387,US-54/SR-136/SR-3 & US-64,Guymon,OK,585,2.97566666,36.688676,-101.478377
486,LA NORIA CONV STORES,"I-35 N, EXIT 4",Laredo                                  ,TX,693,3.299,27.53548,-99.483817
489,EDDIES CORNER,US-87 & US-191,Moore,MT,815,3.749,46.974864,-109.693715
491,One9 #403,"I-75, EXIT 117",Heiskell,TN,405,2.999,36.08175,-84.0538
496,PILOT TRAVEL CENTERS #270,"I-40 & I-75, EXIT 374",Knoxville,TN,405,3.439,36.0148,-83.970819
509,LOVES TRAVEL STOPS #256,"I-10, EXIT 140B",Van Horn,TX,640,3.649,31.040253,-104.831363
509,LOVES TRAVEL STOP #256,"I-10, EXIT 140B",Van Horn,TX,640,3.649,31.040253,-104.831363
522,GO MART FOOD STORE #57,"I-70 & ST-285, EXIT 186",Lore City                               ,OH,430,3.179,39.772243,-104.810471
523,CIRCLE K #2723322,"I-985, EXIT 20 & SR-60",Gainesville,GA,18,3.26566666,34.305517,-83.828869
525,FASTBREAK,US-45 ALT,West Point,MS,705,3.059,33.607018,-88.657161
546,PLAZA 30,US-30,Wanatah,IN,365,3.499,41.431534,-86.897166
557,SAPP BROS TRAVEL CENTER,"I-80, EXIT 73",Peru,IL,290,3.389,41.363656,-89.144366
557,SAPP BROS TRAVEL CENTER,"I-80, EXIT 73",Peru,IL,290,3.589,41.363656,-89.144366
557,SAPP BROS TRAVEL CENTER,"I-80, EXIT 73",Peru,IL,290,3.449,41.363656,-89.144366
557,SAPP BROS TRAVEL CENTER,"I-80, EXIT 73",Peru,IL,290,3.289,41.363656,-89.144366
559,SHELL MORGAN ROAD TRUCK STOP,"I-40, EXIT 142",Maumelle,AR,695,3.20733333,34.858852,-92.403179
566,TA GARY TRAVEL CENTER,"I-80/I-94, EXIT 6",Gary,IN,365,3.83066666,41.589885,-87.346784
567,TA ELOY TRAVEL CENTER,"I-10 & I-8, EXIT 203",Eloy,AZ,930,3.459,33.494996,-111.905059
572,PILOT TRAVEL CENTER #881,"I-69, EXIT 309A",Fort Wayne                              ,IN,370,3.899,41.113154,-85.12887
572,PILOT TRAVEL CENTERS #881,"I-69, EXIT 309A",Fort Wayne                              ,IN,370,3.879,41.113154,-85.12887
576,PETRO STOPPING CENTER #343,"I-10, EXIT 76",Egan,LA,600,3.624,30.244597,-92.513464
578,LOVES TRAVEL STOP #449,"I-84, EXIT 17",Troutdale,OR,935,3.779,45.533555,-122.395959
579,FLYING J TRAVEL PLAZA #764,"I-80, EXIT 104 & US-191",Rock Springs,WY,835,3.67066666,41.594274,-109.246355
586,AMERISTAR TRAVEL PLAZA #120,"I-82, EXIT 80",Prosser,WA,925,4.399,46.203165,-119.766964
586,AMERISTAR TRAVEL PLAZA #120,"I-82, EXIT 80",Prosser,WA,925,4.559,46.203165,-119.766964
588,TA TUSCALOOSA TRAVEL CENTER,"I-20/I-59, EXIT 77",Cottondale,AL,615,2.964,31.20518,-85.38188
591,TA Concordia Travel Plaza,"I-70, EXIT 58 & SR-23",Concordia,MO,400,3.22566666,43.042577,-87.95434
599,Sapp Bros Travel Center,"I-80, EXIT 59 & SR-17J",Sidney,NE,475,3.50066666,41.132458,-102.967539
602,JIFFY MART EXIT 18 TRUCK STOP,"I-89/SR-120, EXIT 18 & SR-120",Lebanon,NH,12,3.599,32.5785,-116.628444
614,TA MAYBROOK TRAVEL CENTER,"I-84, EXIT 5",Montgomery,NY,120,4.359,41.560212,-74.231774
628,KWIK FILL #227,"I-90,  EXIT 218",Geneva,OH,305,3.15233333,39.66201,-82.43349
629,FLYING J #850,TCH-16,Edmonton,AB,80,4.39948962,33.1829,-90.22286
629,FLYING J #850,TCH-16,Edmonton,AB,80,4.39625375,33.1829,-90.22286
629,FLYING J #850,TCH-16,Edmonton,AB,80,4.40695023,33.1829,-90.22286
629,FLYING J #850,TCH-16,Edmonton,AB,80,4.40630048,33.1829,-90.22286
629,FLYING J #850,TCH-16,Edmonton,AB,80,4.39722401,33.1829,-90.22286
629,FLYING J #850,TCH-16,Edmonton,AB,80,4.3981947,33.1829,-90.22286
636,UNION 76,"I-5, EXIT 233 E",Albany,OR,935,3.379,44.622238,-123.092707
651,ONE9 #1366,"I-40, EXIT 126 & US-641",Holladay,TN,460,2.98566666,36.14284,-85.54331
652,TA KNOXVILLE EAST TRAVEL CENTER,"I-40 & I-75, EXIT 374",Knoxville,TN,405,3.42566666,36.0148,-83.970819
659,FLYING J #869,HWY 2 SOUTH,Nanton,AB,50,4.39948962,34.356072,-117.615637
659,FLYING J #869,HWY 2 SOUTH,Nanton,AB,50,4.59317483,34.356072,-117.615637
659,FLYING J #869,HWY 2 SOUTH,Nanton,AB,50,4.59114784,34.356072,-117.615637
659,FLYING J #869,HWY 2 SOUTH,Nanton,AB,50,4.60163996,34.356072,-117.615637
659,FLYING J #869,HWY 2 SOUTH,Nanton,AB,50,4.59216111,34.356072,-117.615637
659,FLYING J #869,HWY 2 SOUTH,Nanton,AB,50,4.60231851,34.356072,-117.615637
669,PETRO STOPPING CENTER #350,"I-10,  EXIT 4",Canutillo,TX,640,3.499,31.918022,-106.598
672,CROWN POINT TRUCK STOP,"I-295/US-130,EXIT 22",Thorofare,NJ,150,3.549,39.84234,-75.19629
680,TA EXPRESS SUMMIT,"I-29, EXIT 207 & US-12",Summit,SD,566,3.20566666,45.347874,-97.045125
684,7-ELEVEN #35101,"I-86/SR-17, EXIT 16",Randolph,NY,38,4.499,42.118113,-79.000377
689,FLYING EAGLE,"I-235, EXIT 4",Wichita,KS,570,3.499,37.687288,-97.338469
692,BP,US-63,Ottumwa,IA,489,3.399,41.000951,-92.403524
739,Arco #364420,US-23,Greenup,KY,255,3.649,38.526128,-82.943154
748,QUIKTRIP #4231,US-85,Evans,CO,800,3.17233333,40.390542,-104.687999
769,AYERCO #26,US-61/US-136,Alexandria,MO,345,3.01566666,40.35975,-91.460043
815,Kwik Trip #1508,"US-18/SR-151, EXIT 58",Barneveld,WI,420,3.489,43.01242,-89.897096
855,SPEEDWAY #7459,US-41 & SR-137,North Chicago,IL,293,3.379,35.011806,-77.571517
855,SPEEDWAY #7459,US-41 & SR-137,North Chicago,IL,293,3.499,35.011806,-77.571517
855,SPEEDWAY #7459,US-41 & SR-137,North Chicago,IL,293,3.289,35.011806,-77.571517
863,Ocean Fuel,US-301/SR-73,Sylvania,GA,195,3.499,33.11097,-83.61517
906,PILOT TRAVEL CENTERS #429,"I-40, EXIT 280",West Memphis,AR,435,3.499,35.1514,-90.185285
906,PILOT TRAVEL CENTER #429,"I-40, EXIT 280",West Memphis,AR,435,3.291,35.1514,-90.185285
908,CIRCLE K #2704888,"I-65, EXIT 246 & SR-119",Pelham,AL,615,3.46566666,34.610644,-120.05879
912,PETRO STOPPING CENTER #319,"I-20/59,  EXIT 100",Mc Calla,AL,615,3.12566666,32.391047,-85.668882
936,CASEYS #4254,"I-40, EXIT 129",Conway,AR,695,3.03233333,35.086096,-92.453883
970,CIRCLE K #2702885,"I-17/SR-60, EXIT 199A",Phoenix,AZ,930,3.39233333,33.60503,-112.070892
977,PILOT TRAVEL CENTER #328,"I-10, EXIT 17",Quartzsite,AZ,930,3.959,33.667535,-114.217043
977,PILOT TRAVEL CENTERS #328,"I-10, EXIT 17",Quartzsite,AZ,930,3.959,33.667535,-114.217043
981,STINKER #85,"I-15, EXIT 93",Blackfoot,ID,825,3.53233333,43.190128,-112.350346
982,CIRCLE K #2701948,"I-8, EXIT 7 & SR-195",Yuma,AZ,900,3.56566666,33.639649,-112.004933
1028,FOUR STATES TRUCK STOP,"I-495, EXIT 4 & SR-9",New Castle,DE,243,3.449,39.664685,-75.566167
1028,FOUR STATES TRUCK STOP,"I-495, EXIT 4 & SR-9",New Castle,DE,243,3.399,39.664685,-75.566167
1042,Union 76,US-441 & SR-100A,Lake City,FL,75,3.56233333,30.188826,-82.637793
1043,ONE9 #1401,I-75 EXIT 414  & US-41,Lake City,FL,75,3.259,30.188826,-82.637793
1043,SHELL DBA ONE9 #1401,I-75 EXIT 414  & US-41,Lake City,FL,75,3.244,30.188826,-82.637793
1047,TA MARIANNA TRAVEL CENTER,"I-10/SR-8, EXIT 142 & SR-71",Marianna,FL,20,3.60733333,30.776319,-85.234411
1075,PILOT TRAVEL CENTER #68,"I-16 /SR-404, EXIT 51 & US-441",Dublin,GA,85,3.43233333,32.53877,-82.921248
1075,PILOT TRAVEL CENTERS #68,"I-16 /SR-404, EXIT 51 & US-441",Dublin,GA,85,3.399,32.53877,-82.921248
1106,CIRCLE K #2705367,"I-20, EXIT 172",Thomson,GA,16,3.399,33.466053,-82.501796
1112,BC AMPRIDE TRUCK PLAZA,US-59/SR-141,Denison,IA,527,3.399,42.015823,-95.352878
1115,KWIK STAR #704,SR-57/SR-14,Parkersburg,IA,565,3.58233333,42.573652,-92.778797
1121,TRAVELERS OASIS,"I-84, EXIT 182",Eden,ID,787,3.799,42.605539,-114.209203
1128,TA CHICAGO NORTH TRAVEL CENTER,"I-94/US-41, EXIT 1",Wadsworth,IL,444,3.819,42.426933,-87.915438
1128,TA CHICAGO NORTH TRAVEL CENTER,"I-94/US-41, EXIT 1",Wadsworth,IL,444,3.879,42.426933,-87.915438
1128,TA CHICAGO NORTH TRAVEL CENTER,"I-94/US-41, EXIT 1",Wadsworth,IL,444,3.779,42.426933,-87.915438
1128,TA CHICAGO NORTH TRAVEL CENTER,"I-94/US-41, EXIT 1",Wadsworth,IL,444,3.769,42.426933,-87.915438
1132,SPEEDWAY #7423,"I-57, EXIT 83",Ina,IL,293,3.249,38.150317,-88.903065
1136,PILOT TRAVEL CENTER #171,"I-74, EXIT 206",Oakwood,IL,280,3.399,40.139877,-87.8125
1136,PILOT TRAVEL CENTER #171,"I-74, EXIT 206",Oakwood,IL,280,3.499,40.139877,-87.8125
1136,PILOT TRAVEL CENTER #171,"I-74, EXIT 206",Oakwood,IL,280,3.599,40.139877,-87.8125
1140,CIRCLE K #4701398,"I-55, EXIT 82 & SR-104",Divernon,IL,280,3.499,47.891346,-122.732318
1149,PILOT TRAVEL CENTER #30,"I-70, EXIT 96",Greenfield,IN,375,3.959,39.795363,-85.768886
1149,PILOT TRAVEL CENTERS #30,"I-70, EXIT 96",Greenfield,IN,375,3.959,39.795363,-85.768886
1151,SPEEDWAY #8061,"I-70, EXIT 115 & SR-109",Knightstown,IN,375,3.759,39.795413,-85.527991
1156,CIRCLE K #4700028,"I-74/US-421, EXIT 116 & SR-44",Shelbyville,IN,375,3.599,40.588908,-85.022152
1157,One9 #297,"I-70, EXIT 11 & SR-46",Terre Haute                             ,IN,510,3.43566666,39.439861,-87.336499
1158,PILOT TRAVEL CENTERS #36,US-30  & SR-49,Valparaiso,IN,365,3.869,40.760667,-73.907999
1158,PILOT TRAVEL CENTER #36,US-30  & SR-49,Valparaiso,IN,365,3.859,40.760667,-73.907999
1163,SHORT STOP #13,US-54,Emporia,KS,553,2.839,38.410394,-96.191799
1176,PILOT TRAVEL CENTERS #353,"I-75, EXIT 129",Georgetown,KY,410,3.20566666,36.88926,-83.05517
1179,PILOT TRAVEL CENTERS #399,"I-65, EXIT 105",Lebanon Junction,KY,415,3.609,37.839258,-85.722006
1196,SOUTHERN BELLE TRUCK STOP,US-61 & SR-964,Saint Francisville,LA,725,3.384,30.783415,-91.373357
1199,ALLTOWN MARKETS #306,"I-190, EXIT 7",Leominster,MA,178,3.68233333,42.519615,-71.777338
1202,ONE9 #290,"I-95, EXIT 93 & SR-222",Perryville,MD,22,3.599,39.569611,-76.069864
1204,PETRO STOPPING CENTER #321,"I-70 & I-57, EXIT 159",Effingham,IL,574,3.549,41.791171,-87.586713
1204,PETRO STOPPING CENTER #321,"I-70 & I-57, EXIT 159",Effingham,IL,574,3.349,41.791171,-87.586713
1204,PETRO STOPPING CENTER #321,"I-70 & I-57, EXIT 159",Effingham,IL,574,3.439,41.791171,-87.586713
1204,PETRO STOPPING CENTER #321,"I-70 & I-57, EXIT 159",Effingham,IL,574,3.399,41.791171,-87.586713
1208,D AVENUE FUEL PLAZA,US-131,Kalamazoo,MI,465,3.499,42.314813,-85.592991
1208,D AVENUE FUEL PLAZA,US-131,Kalamazoo,MI,465,3.099,42.314813,-85.592991
1210,ROADHAWK TRAVEL CENTER,"I-94, EXIT 56 & SR-51",Paw Paw                                 ,MI,465,3.599,33.639649,-112.004933
1210,ROADHAWK TRAVEL CENTER,"I-94, EXIT 56 & SR-51",Paw Paw                                 ,MI,465,3.559,33.639649,-112.004933
1217,KWIK TRIP #250,"I-90, EXIT 179",Austin,MN,515,3.374,43.66604,-92.988013
1218,CASEYS #3658,SR-210,Pillager,MN,522,3.299,46.327844,-94.475013
1225,AYERCO #35,US-61 & US-61 BUS,Bowling Green,MO,494,3.01566666,39.34029,-91.195747
1234,Lamar Travel Plaza,US-71 & US-160,Lamar,MO,416,3.199,40.49444,-95.08442
1236,AYERCO #44,US-36 & US-24,Palmyra,MO,494,3.01566666,39.798365,-91.526854
1240,TEMP STOP #103,US-65,Sedalia,MO,400,3.199,38.703696,-93.23627
1247,SNAPPY MART #11,US-63 & SR-14,West Plains,MO,535,3.299,42.5776,-87.827264
1251,MAPCO #3009,US-72,Corinth,MS,435,3.154,34.904505,-88.483813
1256,DOUBLE QUICK #89,US-82/US-278,Greenville,MS,655,3.25566666,33.39019,-91.052512
1265,JOE JOES TRAVEL CENTER,US-78 & RED BANKS RD S,Red Banks,MS,435,2.97233333,37.021283,-78.143727
1304,LOVES TRAVEL STOP #667,"I-85, EXIT 152",Mebane,NC,65,3.94733333,36.089779,-79.272072
1315,CIRCLE K #2720218,US-421 BUS & US-15/US-501/US-1,Sanford,NC,177,3.08233333,35.486513,-79.196449
1325,SCOTCHMAN #3303,US-421 & US-74,Wilmington,NC,245,3.629,34.225493,-77.946116
1326,SPEEDWAY #7949,US-301/US-264 ALT & CR-1674,Wilson,NC,205,3.199,35.730745,-77.925115
1333,PUMP & PANTRY #15,US-30,Grand Island,NE,330,3.30733333,40.929415,-98.365395
1340,BORDENTOWN VALERO,"NJ TNPK, EXIT 7 & US-206",Bordentown,NJ,230,3.499,40.126888,-74.713343
1342,Delta,"I-80, EXIT 47B",Fairfield,NJ,115,3.20233333,40.88371,-74.30598
1344,BOLLA TRUCK STOP #193,US-202 & SR-17,Mahwah,NJ,115,3.53233333,40.954344,-74.211309
1348,GLOBAL,SR-73,Palmyra,NJ,150,3.359,40.0053,-75.033894
1356,LOVES TRAVEL STOP #257,"I-40 & HORIZON, EXIT 79",Milan,NM,580,3.59066666,40.742642,-111.892182
1364,7- ELEVEN #40507,"I-80/I-90, MM 56 WB",Rolling Prairie,IN,465,3.98233333,41.674502,-86.622183
1372,PILOT TRAVEL CENTER #469,"I-77, EXIT 101 & SR-627",Canton,OH,249,3.62233333,40.803604,-81.375052
1376,FUEL MART #782,"I-75, EXIT 118",Lima                                    ,OH,411,3.08566666,40.741448,-84.108082
1379,TA LODI TRAVEL CENTER,"I-71, EXIT 209 & I-76/US-224, EXIT 1",Seville,OH,305,3.739,39.907347,-75.241447
1384,SUNOCO,"I-80/I-90, EXIT 13 & US-20ALT/SR-15",Montpelier,OH,550,3.41566666,41.581935,-84.602896
1391,ONCUE EXPRESS #2045,"I-35, EXIT 203 & SR-15",Billings,OK,500,3.21566666,45.787229,-108.501912
1395,DOMINO FOOD AND FUEL #1,"I-40, EXIT 66",Clinton                                 ,OK,483,3.099,35.505003,-98.973886
1404,ONE9 #339,"I-74, EXIT 4 & SR-63",Covington,IN,375,3.26233333,40.639018,-74.020536
1414,SAC SHOP #507,"I-70, EXIT 12/161",Breezewood                              ,PA,14,4.099,39.99925,-78.23862
1424,GETTYSBURG TRAVEL PLAZA,US-15 & SR-394,Gettysburg,PA,70,3.899,40.794689,-77.858961
1428,CIRCLE K #4702408,"I-65, EXIT 168 & SR-38/SR-25",Lafayette,IN,375,3.43233333,33.639043,-112.004242
1432,KWIK FILL #259,"I-81, EXIT 57",Mechanicsburg                           ,PA,70,4.049,40.213158,-77.007868
1444,PILOT TRAVEL CENTERS #346,"I-20, EXIT 92 & US-601",Lugoff,SC,135,3.43233333,34.220977,-80.668447
1445,PILOT TRAVEL CENTERS #402,"I-80, EXIT 367",Cheyenne,WY,795,3.709,41.138437,-104.812406
1447,HOT SPOT #3005,US-221,Chesnee,SC,210,3.199,35.148484,-81.863651
1453,EXPRESS STOP,US-278/SR-101/SR-6 & SR-113,Rockmart,GA,193,3.319,34.089216,-84.340005
1455,PETRO FLORENCE,"I-95, EXIT 169",Florence,SC,46,3.32566666,34.182369,-79.786461
1461,CIRCLE K #2705370,"I-26, EXIT 15 & US-176",Inman,SC,210,3.099,35.048498,-82.09011
1464,CIRCLE K #2723254,"I-20, EXIT 55 & SR-6",Lexington,SC,135,3.199,34.169998,-79.399551
1470,CIRCLE K #2705348,US-1,Beech Island,SC,135,3.159,33.42736,-81.89095
1479,TA SPARTANBURG TRAVEL CENTER,"I-85, EXIT 63 & SR-290",Duncan,SC,210,3.43233333,34.936023,-82.145408
1487,ROADRUNNER MARKET #6019,"I-81, EXIT 36 NORTH",Greeneville                             ,TN,405,3.499,36.165174,-82.812518
1492,MAPCO #3538,"I-24, EXIT 174",Chattanooga,TN,285,2.899,35.091981,-85.234979
1507,CIRCLE K #4703941,"I-55, EXIT 5A",Memphis,TN,435,3.189,35.112125,-89.954644
1516,LOVES TRAVEL STOP #261,I-27 EXIT 116,Amarillo,TX,585,3.23233333,35.221849,-101.840963
1531,CircleK #4702365,"I-74, EXIT 112 & SR-9",Shelbyville,IN,375,3.509,40.475594,-85.967487
1533,YESWAY #1157,US-62,Brownfield,TX,700,2.99233333,33.178657,-102.274741
1546,SHELL,"I-35, EXIT 86 & SR-85",Dilley,TX,740,3.099,42.481406,-96.399749
1548,TOOT N TOTUM #107,US-287,Dumas,TX,585,3.03233333,35.865392,-101.962718
1552,STRIPES #40911,US-59 & SR-16,Freer,TX,625,3.099,41.151909,-81.386869
1555,SEIBERT TRAVEL PLAZA,"I-70, EXIT 405 & SR-59",Seibert,CO,800,3.499,41.151909,-81.386869
1560,CATTREZ,US-20 & SR-5,Irving,NY,38,2.899,25.795362,-80.204681
1560,CATTREZ,US-20 & SR-5,Irving,NY,38,2.999,25.795362,-80.204681
1562,I MART #108,"I-40, EXIT 108",Wildersville                            ,TN,435,3.099,35.78145,-88.36032
1567,KUM & GO #4110,"I-235, EXIT 11",Des Moines,IA,320,3.02733333,41.574349,-93.61043
1579,FLYING J TRAVEL PLAZA #924- TOWN PUMP,"I-15, EXIT 122 & I-90 MM220",Butte                                   ,MT,816,3.56566666,45.735913,-108.608527
1582,LOVES TRAVEL STOP #250,I-40 EXIT 60,Amarillo,TX,585,3.314,35.221849,-101.840963
1585,Stripes 7Fleet #42498,US-385 & CR-1910,Andrews,TX,710,3.369,31.825485,-102.356098
1590,ROAD RANGER #240,"I-80 & I-94, EXIT 15-A",Lake Station,IN,365,3.559,40.887328,-96.678697
1596,FLYING J #305,"I-40, EXIT 39",Jamestown,NM,580,3.44233333,35.480487,-108.430767
1597,7-ELEVEN #36156,"I-70 & SR-519, EXIT 25/333",Eighty Four,PA,165,4.999,40.1755,-80.12977
1599,ONVO TRAVEL PLAZA,"I-81, EXIT 10",Mc Graw,NY,220,3.439,40.68295,-73.9708
1599,ONVO TRAVEL PLAZA,"I-81, EXIT 10",Mc Graw,NY,220,3.459,40.68295,-73.9708
1602,CIRCLE K #2723387,US-98,Beaumont,MS,620,3.56566666,31.165217,-88.933445
1606,DONNAS TRAVEL PLAZA,"I-5, EXIT 202",Marysville,WA,962,4.559,48.062073,-122.160311
1610,TA BALTIMORE TRAVEL CENTER,"I-95, EXIT 57",Baltimore                               ,MD,22,4.759,39.319732,-76.649533
1618,GO MART FOOD STORE #33,US-33,Ripley                                  ,WV,44,3.499,38.820415,-81.726704
1621,CIRCLE K #2709337,"I-65, EXIT 262B",Birmingham                              ,AL,615,3.489,33.530651,-86.800929
1622,RACEWAY #6973,US-380 & SR-114/SR-101,Bridgeport,TX,630,2.78233333,33.212762,-97.765116
1623,SAPP BROS TRAVEL CENTER,"I-70 & I-270, EXIT 278",Commerce City,CO,800,3.389,39.772243,-104.810471
1625,PILOT TRAVEL CENTERS #60,"I-26, EXIT 159",Bowman                                  ,SC,42,3.43233333,33.349348,-80.683349
1632,PILOT TRAVEL CENTERS #266,"I-10, EXIT 139 & SR-292",Las Cruces                              ,NM,640,3.19066666,40.616797,-83.596761
1633,7-ELEVEN #36302,"I-35, EXIT 144",Von Ormy,TX,740,3.109,29.278779,-98.658588
1634,PILOT TRAVEL CENTERS #40,"I-94, EXIT 322",Oak Creek,WI,444,3.889,42.879225,-87.914669
1644,ALLSUPS CONVENIENCE STORE #2414,"I-20, EXIT 235",Roscoe,TX,575,2.929,32.440683,-100.544007
1646,SPEEDWAY #8310,US-6  & US-31,Plymouth,IN,465,3.609,41.350048,-86.321181
1647,SPEEDWAY #8305,US-41 & SR-312,Hammond,IN,290,3.76566666,35.011806,-77.571517
1653,ROAD RANGER #187,"I-55, EXIT 289",Chicago,IL,520,3.569,41.87897,-87.66063
1653,ROAD RANGER #187,"I-55, EXIT 289",Chicago,IL,520,3.599,41.87897,-87.66063
1654,CEFCO #3,US-77/US190/SR-36,Cameron,TX,670,2.989,30.858717,-96.975012
1661,CHEVRON,"I-20, EXIT 101 & SR-151",Calhoun,LA,590,3.159,32.514968,-92.353924
1669,BETTY BEAVERS TRUCKSTOP,"I-90, EXIT 28",Fultonville,NY,12,3.149,42.946202,-74.370213
1669,BETTY BEAVERS TRUCKSTOP,"I-90, EXIT 28",Fultonville,NY,12,3.189,42.946202,-74.370213
1670,Petro Stopping Center #54,"I-44, EXIT 4 & SR-3",Joplin,MO,277,3.449,46.786685,-92.106493
1671,LOVES TRAVEL STOP #412,"I-95, EXIT 77",Dunn,NC,205,3.699,35.310395,-78.613831
1672,HANA TRAVEL PLAZA,"I-40,  EXIT 77",Amarillo,TX,585,2.899,35.221849,-101.840963
1699,ALLENS FOOD MART280,US-280/US-231/SR-53/SR-38 & CR-8/CR-34,Sylacauga,AL,615,3.799,33.160974,-86.25918
1700,TOPPS FUEL STOPS,US-259/SR-49,Daingerfield,TX,723,3.109,33.03415,-94.726691
1720,TOOT N TOTUM #120,US-54 & S WESTERN AVE,Liberal,KS,585,3.01566666,33.993622,-118.308831
1749,HIGHWAY 96 FUEL STOP,US-96 & SR-62/FM-1004,Buna                                    ,TX,610,3.149,34.135086,-116.223097
1753,PWI #169,"I-35/US-77, EXIT 359 & CR-1304",Abbott,TX,765,2.899,31.893236,-97.103895
1773,M-46 AUTO TRUCK PLAZA,"US-131, EXIT 120 & SR-46",Howard City,MI,344,3.199,45.014796,-92.984666
1773,M-46 AUTO TRUCK PLAZA,"US-131, EXIT 120 & SR-46",Howard City,MI,344,3.599,45.014796,-92.984666
1773,M-46 AUTO TRUCK PLAZA,"US-131, EXIT 120 & SR-46",Howard City,MI,344,3.099,45.014796,-92.984666
1791,PILOT TRAVEL CENTERS #257,"I-20, EXIT 126 & FM-1788",Midland                                 ,TX,710,3.56566666,32.020111,-102.117875
1807,LOVES TRAVEL STOP #229,I-40 EXIT 96 & SR-207,Panhandle,TX,585,3.314,33.22124,-94.34603
1810,KENT KWIK #804,US-83,Perryton,TX,585,2.999,36.391666,-100.805346
1829,PILOT TRAVEL CENTERS #96,"SR- 60 & FL TURNPIKE, EXIT 193",Okeechobee,FL,143,3.719,27.242799,-80.830148
1829,PILOT TRAVEL CENTER #96,"SR- 60 & FL TURNPIKE, EXIT 193",Okeechobee,FL,143,3.699,27.242799,-80.830148
1832,CORNER FUEL CENTER,US-49,Hattiesburg,MS,620,3.299,31.307424,-89.316604
1834,PUMP N PANTRY #15,"I-20, EXIT 617 & US-59",Marshall,TX,766,2.899,30.16563,-96.842107
1849,Stripes #42457,US-67/US-277,San Angelo,TX,740,3.244,31.459689,-100.444688
1855,EXIT 76 AUTO TRUCK PLAZA,US-131,Byron Center,MI,344,3.499,42.812224,-85.72793
1858,FLYING J TRAVEL PLAZA #737,"I-10, EXIT 583",San Antonio                             ,TX,740,3.224,29.374994,-98.588562
1859,GO MART FOOD STORE #44,"I-79, EXIT 67 & US-19/SR-4",Sutton,WV,44,3.559,38.665398,-80.710359
1860,MR FUEL #278,"I-75/71, EXIT 175 & SR-338",Walton,KY,300,3.019,38.86354,-84.614704
1861,PETRO STOPPING CENTER #315,"I-40, EXIT 66",Kingman,AZ,910,3.899,35.208957,-114.023342
1866,PRI MART FUEL CENTER,"I-94, EXIT 29",Benton Harbor                           ,MI,465,3.799,42.111161,-86.45104
1866,PRI MART FUEL CENTER,"I-94, EXIT 29",Benton Harbor                           ,MI,465,3.499,42.111161,-86.45104
1873,JDS TRUCKSTOP,"US-12 & US-31, EXIT 3",Niles,MI,465,3.749,41.866764,-86.295113
1873,JDS TRUCKSTOP,"US-12 & US-31, EXIT 3",Niles,MI,465,3.849,41.866764,-86.295113
1874,CIRCLE K #2744529,US-175,Seagoville,TX,630,2.95066666,32.644724,-96.520915
1879,HOLIDAY STATIONSTORE #3552,"I-35, EXIT 81 & SR-70",Lakeville,MN,448,3.549,47.923999,-122.300371
1888,STRIPES 7FLEET #42449,US-87,Sterling City,TX,710,3.28066666,31.836723,-100.996326
1889,TOOT N TOTUM #105,US-54 & US-287,Stratford,TX,585,2.96566666,36.33641,-102.073073
1893,MIKE MCDONALD TRUCK STOP,"I-20, EXIT 509",Terrell                                 ,TX,637,2.87066666,30.221303,-102.067703
1894,CIRCLE K #2741544,"I-37 & SR-72, EXIT 69",Three Rivers,TX,747,3.06566666,40.290233,-83.031788
1897,YESWAY #1077,"I-20/US-84, EXIT 278",Tye,TX,575,2.87566666,32.458204,-99.862533
1905,LUCKY TRUCK STOP,US-82,Whitesboro                              ,TX,630,2.88566666,31.64293,-97.9717
1909,RALLYSTOP #1,"I-15, EXIT 62",Cedar City,UT,791,3.459,37.67748,-113.06189
1914,LOVES TRAVEL STOP #792,"I-70, EXIT 160",Green River,UT,835,3.709,38.991788,-110.11284
1921,BELL TRUCK STOP,"I-80, EXIT 146",Park City,UT,835,3.45233333,40.64482,-111.496653
1923,SCENIC QUIK STOP,"I-70, EXIT 54 & US-89",Salina,UT,835,3.459,38.927041,-111.863495
1930,CASEYS #3058,"I-35, EXIT 19 & US-160 E",Wellington,KS,570,3.299,37.271514,-97.397345
1931,RBS ONE STOP,"I-15, EXIT 320",Woods Cross                             ,UT,835,3.459,40.873884,-111.917771
1934,CIRCLE K #2723710,"I-77, EXIT 24",Austinville,VA,185,3.24066666,36.85123,-80.91202
1936,QUICK STOP MARKET #36,"I-81, EXIT 10 & US-11",Bristol,VA,185,3.399,36.59649,-82.18847
1940,7-ELEVEN #40063,"I-81, EXIT 98 & SR-100",Dublin,VA,65,3.199,39.655134,-104.871335
1944,LOVES TRAVEL STOPS #399,"I-77, EXIT 1 & SR-620",Lambsburg,VA,65,3.589,37.330966,-79.21695
1944,LOVES TRAVEL STOP #399,"I-77, EXIT 1 & SR-620",Lambsburg,VA,65,3.589,37.330966,-79.21695
1950,7-ELEVEN #34515,"I-81, EXIT 205",King George,VA,180,3.399,38.258353,-77.139346
1951,CIRCLE K #2723713,"I-81, EXIT 205",Staunton,VA,185,3.38566666,38.14958,-79.0717
1953,FAS MART #3555,"I-64, EXIT 136 & US-15",Gordonsville,VA,180,3.699,25.644555,-80.335923
1954,Joe's Kwik Mart #8409,US-58 & CR-645,Suffolk,VA,130,3.03233333,38.176423,-78.889338
1956,PILOT TRAVEL CENTER #4642,"I-81, EXIT 291",Toms Brook,VA,60,3.659,38.946926,-78.439519
1958,SPEEDWAY #4618,"I-81 & I-77, EXIT 77",Wytheville,VA,185,3.41233333,37.357226,-79.958157
1960,MAPLEWOOD IRVING,"I-89, EXIT 7",Montpelier                              ,VT,170,3.699,44.263716,-72.57541
1962,SUPER QUIK,"I-64, EXIT 172 & SR-1/SR-7",Grayson,KY,255,3.799,45.18918,-87.121515
1976,One9 #963,"I-90, EXIT 276",Spokane                                 ,WA,970,3.989,47.660011,-117.4058
1976,One9 #963,"I-90, EXIT 276",Spokane                                 ,WA,970,3.959,47.660011,-117.4058
1977,GEE CEES TRUCK STOP,"I-5, EXIT 57",Toledo,WA,977,3.839,46.438612,-122.84894
1983,KWIK TRIP #427,"US-53, EXIT 110 & SR-40",Bloomer,WI,295,3.41566666,26.175429,-80.099384
1985,Camp Douglas BP,"I-90 & I-94, EXIT 55",Camp Douglas                            ,WI,420,3.154,44.96419,-92.557913
2000,RIVER CITY TRAVEL PLAZA,US-41,Marinette,WI,360,3.399,45.088331,-87.633148
2002,KWIK TRIP #222,US-53/US-2,Superior,WI,334,3.339,46.70563,-92.103003
2009,KWIK TRIP #139,"I-43, EXIT 120 & CR-V/CR-OK",Sheboygan,WI,444,3.29066666,35.48621,-78.257364
2020,BFS FOODS #72,"I-68, EXIT 23 & SR-26",Bruceton Mills,WV,165,3.499,39.298879,-78.437016
2021,GO MART FOOD STORE #59,"I-64, EXIT 15 & US-60",Huntington,WV,255,3.499,38.413815,-82.428601
2022,GO MART FOOD STORE #86,"I-79, EXIT 40 & SR-16",Ivydale                                 ,WV,44,3.599,26.175429,-80.099384
2029,HOMAX SERVICE,"I-25, EXIT 188",Mills                                   ,WY,790,3.169,42.845141,-106.386072
2030,GHOST TOWN FUEL STOP,US-26/US-20,Casper,WY,790,3.429,42.844293,-106.311687
2034,TA CHEYENNE TRAVEL CENTER,"I-80, EXIT 377 & SR-217/CR-140",Cheyenne,WY,795,3.699,41.138437,-104.812406
2040,Fast Stop Travel Centers #1133,"I-25, EXIT 126 & US-18/20",Douglas,WY,790,3.499,42.755834,-105.379458
2041,PINE BLUFFS SINCLAIR,"I-80, EXIT 401 & US-30",Pine Bluffs,WY,795,3.699,42.849754,-106.323386
2044,One9 #1251,"I-80, EXIT 173",Wamsutter,WY,795,3.499,41.668378,-107.979034
2074,STRIPES #40522,"I-10, EXIT 550",San Antonio,TX,740,3.059,29.374994,-98.588562
2076,ALLSUPS CONVENIENCE STORE #2159,US-283 BUS/US-277 BUS & SR-422,Seymour,TX,770,3.299,32.752935,-117.076791
2078,ALLSUPS CONVENIENCE STORE #2366,US-84 & CR-3300,Slaton                                  ,TX,700,2.969,27.75205,-82.678047
2084,Main Street Market #112,"I-20, EXIT 73",Wickett,TX,710,2.879,31.568452,-103.00384
2087,LWS TRUCK STOP,SR-30,Logan,UT,835,3.42566666,41.737965,-111.846011
2088,FLYING J TRAVEL PLAZA #773,"I-70, EXIT 40",Richfield                               ,UT,835,3.699,38.772523,-112.088746
2089,FLYING J TRAVEL PLAZA #774,"I-84, EXIT 7",Snowville                               ,UT,835,3.749,41.972778,-112.716387
2115,KWIK TRIP #838,SR-23/SR-33,Reedsburg,WI,420,3.194,43.535918,-89.989935
2125,BIG D #44,"I-80, EXIT 311 & SR-130",Laramie,WY,795,3.249,41.313704,-105.602581
2144,Mountain View Truck Stop,US-15,Thurmont,MD,60,4.099,39.623572,-77.410966
2152,SPEEDWAY #4709,"I-90, EXIT 102",Fairmont,MN,425,3.299,43.64956,-94.467251
2167,PILOT TRAVEL CENTERS #134,"I-94, EXIT 171 (CR 75)",Saint Cloud,MN,451,3.28733333,45.530748,-94.18087
2182,PILOT TRAVEL CENTER #4649,"I-64 & I-81, EXIT 205",Raphine,VA,185,3.659,37.357226,-79.958157
2192,GO MART FOOD STORE #51,US-19/SR-129,Mount Nebo                              ,WV,44,3.599,39.6023,-79.70783
2194,A AND A TRUCKSTOP,US-35 & CR-41,Jackson,OH,315,3.799,25.809097,-80.124558
2196,Certified Oil #400410,I-76 EXIT 43,Ravenna,OH,249,3.31566666,41.156697,-81.24258
2204,NATURAL BRIDGE SHELL,US-278 & SR-5,Lynn,AL,615,3.68233333,33.169399,-101.80756
2209,Roadrunner #471,"I-40/US-65, EXIT 142 & SR-365",North Little Rock,AR,695,3.03233333,34.784787,-92.258199
2219,PILOT TRAVEL CENTER #66,"I-85, EXIT 129",Braselton,GA,16,3.27233333,34.10326,-83.831106
2219,PILOT TRAVEL CENTERS #66,"I-85, EXIT 129",Braselton,GA,16,3.27233333,34.10326,-83.831106
2223,PO JOS GAS N GO,"I-16 SR-404, EXIT 116 & US-301/SR-73",Register,GA,195,3.23233333,32.365927,-81.884804
2227,SPEEDWAY #7448,SR-59,Naperville,IL,293,3.299,41.762684,-88.190457
2227,SPEEDWAY #7448,SR-59,Naperville,IL,293,3.359,41.762684,-88.190457
2231,QUIKTRIP #605,"I-270, EXIT 33",Saint Louis,MO,540,2.899,38.633024,-90.244086
2255,S&G #36,"I-280, EXIT 2 & SR-795",Millbury,OH,550,3.49233333,41.564559,-83.555728
2267,Circle K #4703917,"I-65, EXIT 112 & SR-25",Cross Plains,TN,460,2.949,35.053775,-85.143384
2283,CIRCLE K #2707321,SR-60,Bartow,FL,225,3.52233333,27.875866,-81.804177
2287,SAC SHOP #511,"I-76/I-70, EXIT 146 & I-99/US-220 EXIT 1",Bedford,PA,14,4.099,40.072831,-78.484576
2306,SCOTCHMAN #3894,"I-77, EXIT 73 & SR-901",Rock Hill,SC,210,3.079,34.933452,-81.019857
2310,MAPCO #3686,"I-24, EXIT 175",Chattanooga,TN,285,2.889,35.091981,-85.234979
2311,SHELL,"I-24 & EPPS MILL RD, EXIT 89",Christiana                              ,TN,460,3.13233333,35.719501,-86.325307
2331,PINNERS POINT,SR-135,Portsmouth,VA,130,3.499,36.83543,-76.29827
2336,FLYING J TRAVEL PLAZA #754,"I-77 & I-81, EXIT 77",Wytheville,VA,185,3.549,37.357226,-79.958157
2340,RSTORE #4478,SR-8 & SR-13,Prentice,WI,395,3.039,44.090584,-87.659118
2557,PWI #106,"I-30, EXIT 77B",Royse City,TX,630,2.899,32.971462,-96.330093
2602,PILOT TRAVEL CENTERS #9,"I-75, EXIT 36",Franklin,OH,407,3.35233333,39.563102,-84.295515
2623,TA JANESVILLE TRAVEL CENTER,"I-90/I-39, EXIT 171B & US-14",Janesville,WI,420,3.299,42.678636,-89.025807
2626,WEST END SINCLAIR,"I-80, EXIT 211",Rawlins,WY,838,3.319,41.786119,-107.232205
2629,PILOT TRAVEL CENTERS #253,"I-295 & NJ TRNPK,  EXIT 2B",Penns Grove,NJ,243,3.989,40.756426,-74.057187
2635,FLYING J #584,"I-5, EXIT 278",Aurora,OR,935,3.859,29.908973,-89.941475
2638,PIT STOP TRAVEL CENTER,US-789,Riverton                                ,WY,790,4.399,43.027342,-108.386516
2640,LITTLE NASHVILLE,"I-64, EXIT 50 & SR-127",Nashville,IL,540,3.399,34.985637,-78.044823
2640,LITTLE NASHVILLE,"I-64, EXIT 50 & SR-127",Nashville,IL,540,3.299,34.985637,-78.044823
2644,FREDERICKS TRAVEL CENTER,"I-25/US-87, EXIT 235 & SR-52",Erie,CO,800,3.499,40.743122,-83.823024
2756,PAR MAR FOOD STORE #89,"I-77/SR-2, EXIT 170 & SR-14 E",Mineral Wells,WV,430,3.499,28.306864,-81.383714
2761,PONY EXPRESS SERVICE CENTER,US-36 & SR-148,Hanover,KS,316,2.95566666,26.173507,-80.099685
2764,LOVES TRAVEL STOP #046,US-64/54 & SR-94,Hooker,OK,585,3.56233333,32.604927,-116.610496
2765,LOVES TRAVEL STOP #023,US-50 & US-287,Lamar,CO,525,3.46233333,38.074768,-102.618518
2772,PILOT TRAVEL CENTERS #29,"I- 80, EXIT 144; I-69, EXIT 357",Fremont                                 ,IN,465,3.899,41.733299,-84.891454
2772,PILOT TRAVEL CENTER #29,"I- 80, EXIT 144; I-69, EXIT 357",Fremont                                 ,IN,465,3.899,41.733299,-84.891454
2779,Stinker #121,I-84 & EXIT 208,Heyburn,ID,787,3.56066666,41.423343,-73.629503
2788,JIFFY MART #451,"I-91, EXIT 17 & SR-302",Wells River,VT,39,3.569,27.810617,-80.469364
2805,Fast Stop Travel Centers #1145,"I-15,  EXIT 31",Downey,ID,825,3.799,42.428844,-112.1235
2807,SUDDEN SERVICE #25,"I-24, EXIT 11",Clarksville,TN,460,3.30733333,36.575216,-87.333526
2811,KWIK FILL #22,"I-90, EXIT 40 & SR-34/SR-31",Weedsport,NY,220,3.899,43.048169,-76.563629
2817,Chevron #382354,"I-5/US-12, EXIT 72",Chehalis,WA,977,4.299,46.66986,-122.973954
2848,TA TONOPAH TRAVEL CENTER,"I-10, EXIT 103",Tonopah,AZ,930,3.939,33.487475,-112.931053
2851,SPEEDWAY #2958,"I-8, EXIT 12",Yuma,AZ,900,3.479,32.553325,-114.510731
2862,TA TALLULAH TRAVEL CENTER,"I-20, EXIT 171 & US-65",Tallulah,LA,760,3.209,27.927717,-82.73069
2864,KUM & GO #0493,I-49 BUS/SR-59,Neosho,MO,535,3.059,36.819086,-94.3759
2875,CIRCLE K #2744138,"I-25, EXIT 101 & US-50/SR-47",Pueblo,CO,803,3.399,38.293737,-104.606727
2883,PILOT TRAVEL CENTER #293,"I-75, EXIT 341 & CR-484",Ocala                                   ,FL,140,3.41233333,27.752071,-82.679855
2883,PILOT TRAVEL CENTERS #293,"I-75, EXIT 341 & CR-484",Ocala                                   ,FL,140,3.359,27.752071,-82.679855
2885,SP Truckstop & Travel Center,US-84/SR-38,Bainbridge,GA,20,3.599,30.906693,-84.57325
2889,MOULTON COWBOYS,SR-157,Moulton                                 ,AL,615,3.099,34.480629,-87.282619
2891,PETRO STOPPING CENTER #338,"I-80, EXIT 21",Sparks,NV,966,3.949,39.591446,-119.705402
2895,EAGLE TRUCK STOP,I-77 EXIT 81,New Philadelphia,OH,249,3.31566666,40.495684,-81.450724
2896,NORTH LEWISTON DYNAMART,US-12 & SR 128,Lewiston,ID,970,3.669,47.488945,-122.325829
2897,GAS N GO #15,"I-80, EXIT 41",Lyman,WY,827,3.46566666,41.327394,-110.297477
2910,FLYING J TRAVEL PLAZA #685,"I-29 & I- 94, EXIT 349",Fargo                                   ,ND,341,3.569,41.724336,-87.585436
2913,ONE9#226,"I-40, EXIT 417 & SR-92",Dandridge,TN,405,3.259,33.691873,-84.66438
2915,TP TRUCK STOP,"I-15, EXIT 80",Fort Hall                               ,ID,825,3.519,43.019047,-112.451642
2917,GOLDYS TRUCK PLAZA,US-29,Rustburg,VA,185,3.519,37.264635,-79.098589
2922,LOVES TRAVEL STOP #210,"I-40, EXIT 158",Albuquerque,NM,580,3.52066666,35.128683,-106.579128
2923,LOVES TRAVEL STOP #435,"I-95, EXIT 104 & SR-207",Ruther Glen,VA,180,3.611,39.409179,-83.026579
2923,LOVES TRAVEL STOPS #435,"I-95, EXIT 104 & SR-207",Ruther Glen,VA,180,3.589,39.409179,-83.026579
2924,HWY 190 FUEL STOP,US-190,Jasper                                  ,TX,610,3.13233333,30.903614,-94.020899
2926,EXIT 77 TRAVEL PLAZA,"I-81, EXIT 77 & SR-39",Harrisburg,PA,70,3.499,39.192685,-83.147726
2929,TA EXPRESS STEELE,"I-94, EXIT 200 & SR- 3",Steele,ND,390,3.599,47.774083,-122.360625
2935,CIRCLE K #2726163,"I-295, EXIT 22",Jacksonville,FL,75,3.299,30.369914,-81.660992
2937,FLYING J TRAVEL PLAZA #664,"I-75, EXIT 171",Walton,KY,300,3.08566666,38.86354,-84.614704
2956,PILOT TRAVEL CENTERS #275,"I-85, EXIT 39 I-77, EXIT 13",Charlotte,NC,46,3.55233333,35.19534,-80.81711
2963,SUPERPUMPER #26,"I-94, EXIT 258 & US-281",Jamestown,ND,390,3.629,46.906458,-98.705817
2967,PETRO STOPPING CENTER #317,"I-57, EXIT 71",Perrysburg,OH,550,3.78566666,41.539388,-83.644796
2968,E-Z MART #4460,"I-20,  EXIT 124",Monroe,LA,719,3.129,32.81513,-92.20569
2977,DISCOUNT FUEL,"I-90, EXIT 150 & SR-73",Kadoka,SD,506,3.229,43.83227,-101.508081
2982,CIRCLE K #2723726,"I-59/I-20, EXIT 52 & US-11/US-43/SR-7",Knoxville,AL,705,3.089,33.59177,-85.89719
3003,CHEVRON,"I-20, EXIT 186",Delta                                   ,LA,760,2.994,32.324875,-90.922654
3008,BUSY BEE,"I-10, EXIT 283 & US-129",Live Oak,FL,10,3.779,30.293743,-82.984647
3022,TA GREENCASTLE TRAVEL CENTER,"I-81, EXIT 5",Greencastle,PA,70,3.959,39.790238,-77.726423
3030,Mr Ts Riverside,US-412,Cardwell                                ,MO,435,3.199,36.047942,-90.290776
3064,PORTS TO PLAINS TRAVEL PLAZA,US-50 & US-287,Lamar,CO,800,3.399,38.074768,-102.618518
3086,SPEEDWAY #4638,US-29,Madison Heights,VA,185,3.49566666,37.452256,-79.10939
3093,RSTORE #4488,US-51,Merrill,WI,395,3.24066666,45.252864,-89.682451
3096,HOBO PANTRY #6,US-431/SR-210,Dothan,AL,20,3.959,31.228421,-85.405308
3118,MOBIL,"I-87, EXIT 42 & US-11",Champlain,NY,39,3.799,44.946777,-73.42634
3128,TA ATLANTA SOUTH TRAVEL CENTER,"I-75, EXIT 201 & SR-36",Jackson,GA,18,3.334,26.173507,-80.099685
3138,TA EXPRESS #6264,"I-70, EXIT 26 & US-50",Grand Junction,CO,800,4.049,39.091798,-108.554491
3139,CHEROKEE TRAVEL MART,"I-40,  EXIT 108",Calumet                                 ,OK,483,3.10566666,35.602108,-98.125723
3148,YESWAY #1038,US-60 & SR-86,Neosho,MO,307,3.059,27.639032,-80.488942
3155,QUIK MART #18,US-72/SR-157,Tuscumbia                               ,AL,615,3.00733333,34.724587,-87.700771
3163,QUIKTRIP #71,"I-44, EXIT 238",Tulsa,OK,560,3.039,36.105819,-95.916194
3164,QUIKTRIP #102,"I-44, EXIT 222A",Tulsa,OK,560,3.039,36.105819,-95.916194
3165,LOVES TRAVEL STOP #213,"I-35, EXIT 211",Tonkawa,OK,500,3.584,36.678979,-97.308234
3167,JASPER FOOD MART,US-78,Jasper,AL,615,3.229,33.837731,-87.264946
3171,One9 #265,"I-40, EXIT 287 & SR-136",Cookeville,TN,405,3.084,32.977517,-97.425278
3176,BP,US-6 & SR-15,New Paris                               ,IN,365,3.65733333,40.475594,-85.967487
3178,ERNIES FUEL STOP #1605,SR-167,Kent,WA,977,4.599,47.437349,-122.218507
3179,MR FUEL #1020,"I-80 & I-94, EXIT 15B",Lake Station,IN,365,3.56566666,40.887328,-96.678697
3191,BUSY CORNER TRUCK STOP AND MARKET,"I-24, EXIT 105 & US-41/SR-2",Manchester,TN,460,3.049,35.464396,-86.07756
3205,CROSSROADS TRUCK STOP STATION,"I-29 & SR 34, MM 109",Colman                                  ,SD,530,3.159,26.170294,-80.100072
3206,PERHAM OASIS,US-10 & SR-78,Perham,MN,250,3.499,47.458177,-96.821635
3215,SHELL TRUCKSTOP,"I-4, EXIT 44",Polk City,FL,225,3.449,28.174683,-81.825674
3216,MAXS #124,"I-24, EXIT 86 & US-41",Oak Grove,KY,460,3.04233333,37.97753,-85.73014
3221,Pilot #1440,"US-67, EXIT 55 & US-64/US-167 & SR-367",Bald Knob,AR,695,3.399,35.308002,-91.56618
3221,Southern Travel Plaza,"US-67, EXIT 55 & US-64/US-167 & SR-367",Bald Knob,AR,695,3.391,35.308002,-91.56618
3222,POMPANO TRUCK STOP,"I-95, EXIT 36B",Pompano Beach,FL,95,3.759,26.243162,-80.130316
3226,ONE9 #245,"I-81, EXIT 77 & SR-39",Harrisburg,PA,70,3.609,39.192685,-83.147726
3227,ONE9 MR FUEL #64,"I-26 & US-17, EXIT 199",Summerville,SC,42,3.219,33.012176,-80.182766
3227,MR FUEL DBA ONE9 #64,"I-26 & US-17, EXIT 199",Summerville,SC,42,3.219,33.012176,-80.182766
3230,STRIPES #40815,US-281 & US-285,Falfurrias,TX,625,3.299,27.223161,-98.146448
3264,TA WEST MEMPHIS TRAVEL CENTER,"I-40/US-63, EXIT 260 & SR-149",Earle,AR,435,3.36733333,35.268157,-90.46814
3280,OUTPOST TRUCK STOP,US-85 & US-18/US-20,Lusk,WY,790,3.689,42.763414,-104.455232
3281,AMERICAN TRUCK PLAZA,I-80 EXIT 215 & SR-254,Milton,PA,138,3.799,41.019613,-76.852116
3284,CASEYS #4390,"I-49/US-71, EXIT 77 & US-160",Lamar,MO,416,3.199,40.49444,-95.08442
3297,SAPP BROS TRAVEL CENTER,"I-80, EXIT 370",Cheyenne,WY,795,3.70066666,41.138437,-104.812406
3316,TRUCKOMAT OF N LITTLE ROCK,"I-40, EXIT 161 & SR-391",North Little Rock                       ,AR,695,3.249,34.784787,-92.258199
3326,MIRABITO #61,"I-81, EXIT 32",Central Square,NY,12,4.299,43.284341,-76.143582
3330,TA # 211 GREENLAND TRAVEL CENTER,"I-95, EXIT 3A & US-101",Greenland,NH,34,3.759,43.036971,-70.838721
3349,QUEEN CITY TRUCK STOP,"I-20 & I-59, EXIT150",Meridian,MS,705,2.939,37.329401,-121.96408
3383,E-Express at Central Truck Stop,"I-35, EXIT 137",Oklahoma City,OK,483,2.879,35.393761,-97.602513
3386,LONGMONT TRUCK STOP,"I-25/US-87, EXIT 240 & SR-119",Longmont,CO,800,3.239,40.163537,-105.16261
3401,POPS Mart #333,"I-77, EXIT 48 & SR-200",Winnsboro,SC,46,3.09066666,40.739651,-73.921678
3413,COUNTRY GIRL TRUCK STOP,US-167 & SR-156,Winnfield,LA,590,3.319,47.378169,-122.242278
3415,JAYS EL CHEAPO FUEL STOP,"I-16, EXIT 104",Metter                                  ,GA,195,3.249,32.396839,-82.062904
3418,Par Mar Store #164,"I-79, EXIT 105 & CR-7",Jane Lew,WV,165,3.999,38.401657,-82.38808
3421,ERNIES TRUCK STOP,"I-5, EXIT 142",Federal Way,WA,977,4.599,47.306433,-122.336834
3422,PWI #167,"I-10, EXIT 601",Seguin,TX,740,2.889,29.582392,-97.967398
3427,JOHNNYS MARKET,"I-69, EXIT 357",Fremont,IN,465,3.699,41.733299,-84.891454
3432,PILOT TRAVEL CENTER #34,"I-65, EXIT 201 & US-231",Remington,IN,365,3.709,40.763075,-87.152334
3432,PILOT TRAVEL CENTERS #34,"I-65, EXIT 201 & US-231",Remington,IN,365,3.659,40.763075,-87.152334
3435,PWI #168,"I-35, EXIT 266 & SR-195",Georgetown,TX,740,2.799,30.642511,-97.67433
3444,Acme Truck Stop,US-441/SR-500,Orlando,FL,140,3.449,28.41959,-81.293691
3460,CHROME TRUCK STOP,US-18 & US-169,Algona,IA,433,3.499,43.072788,-94.227136
3464,BOISE PETROLEUM LLC,"I-84,  EXIT 71",Boise,ID,785,3.379,43.945777,-115.884627
3471,MR FUEL DBA ONE9 #72,"I-16, EXIT 160",Savannah,GA,195,3.13233333,32.043334,-81.099581
3471,ONE9 MR FUEL #72,"I-16, EXIT 160",Savannah,GA,195,3.119,32.043334,-81.099581
3475,PILOT TRAVEL CENTERS #56,"I-85, EXIT 63",Kannapolis,NC,46,3.499,35.477919,-80.626823
3477,CIRCLE K #4707404,"I-91, EXIT 7",Springfield,VT,170,3.699,43.265216,-72.514312
3479,FAST MARKET #4550,"I-75/SR-401, EXIT 136 & US-341",Perry,GA,85,3.099,32.456798,-83.734831
3493,CIRCLE K #2723675,"I-75, EXIT 290 & SR-20",Cartersville,GA,18,3.08566666,30.772973,-83.306188
3519,PILOT TRAVEL CENTERS #431,"I-10, EXIT 873",Orange,TX,610,3.309,30.12294,-93.890687
3522,SUNMART #308,US-59,Livingston                              ,TX,610,2.859,30.731384,-94.936
3526,JOE STOP 99,"I-75, EXIT 99 & SR-119",Anna,OH,411,3.064,47.492153,-122.292683
3530,SPARKYS ONE STOP #22,"I-35, EXIT 111B & US-30",Jefferson,IA,320,3.23233333,41.032238,-91.948874
3536,PETRO STOPPING CENTER #307,I-40 EAST & S LAKESIDE Dr,Amarillo,TX,585,3.279,35.197911,-101.741358
3539,Bigs 211,"I-10, EXIT 620 & SR-123",Seguin,TX,740,3.099,29.582392,-97.967398
3545,STOCKMENS TRUCK PLAZA,"I-494, EXIT 64A",South Saint Paul,MN,450,3.499,44.95304,-93.09013
3580,STINKER I 80 TRAVEL PLAZA,"I-80, EXIT 221 & SR-76",Sinclair,WY,838,3.759,47.929243,-122.301906
3585,CHEVRON,"I-80, EXIT 129",Lovelock,NV,966,3.499,40.17863,-118.477397
3588,BINGO TRUCK STOP,"I-10, EXIT 829 & SR-124",Winnie                                  ,TX,610,2.999,35.3459,-93.042593
3592,TA BRIDGER TRAVEL CENTER #188,"I-80, EXIT 30 & CR-202",Fort Bridger,WY,835,3.71566666,41.318853,-110.39012
3593,TA Parowan Travel Center,"I-15, EXIT 78",Parowan,UT,910,3.70566666,37.840126,-112.829391
3605,SPEEDYS #6,"I-35, EXIT 33",Saint Joseph,MO,400,3.169,39.765776,-94.81477
3608,FUEL MART #787,"I-57, EXIT 212 & US-36",Tuscola,IL,280,3.199,32.722635,-86.236665
3614,PILOT TRAVEL CENTERS #35,"I-80/90, EXIT 72 & US-31",South Bend                              ,IN,465,3.799,41.672118,-86.277976
3614,PILOT TRAVEL CENTER #35,"I-80/90, EXIT 72 & US-31",South Bend                              ,IN,465,3.799,41.672118,-86.277976
3616,PILOT TRAVEL CENTERS #15,"I-75, EXIT 210",Toledo,OH,550,3.77233333,41.673729,-83.563577
3619,ROAD RANGER #141,"I-70, EXIT 23",Brazil,IN,375,3.659,39.536303,-87.12219
3620,One9 #16,"I-71 & US-68, EXIT 50",Wilmington                              ,OH,315,3.14233333,39.895427,-83.812664
3645,SNOW SHOE TRAVEL PLAZA,"I-80, EXIT 147 & SR-144",Snow Shoe,PA,14,3.469,41.067188,-77.879949
3678,TIMES MARKET #299,US-281 BUS,Alice,TX,625,3.099,27.755771,-98.065931
3688,SPEEDWAY #2314,"I-94, EXIT 243 & SR-29",New Baltimore,MI,342,3.559,42.685583,-82.737854
3688,SPEEDWAY #2314,"I-94, EXIT 243 & SR-29",New Baltimore,MI,342,3.579,42.685583,-82.737854
3692,CHARLOTTE TRAVEL PLAZA,"I-77,  EXIT 16B",Charlotte,NC,46,3.53233333,35.19534,-80.81711
3699,WARREN TRAVEL PLAZA,"I-69, EXIT 278 & SR-5",Warren,IN,375,3.399,40.475594,-85.967487
3702,BEARS DEN TRADING POST #101,ST 37 11 MI E OF MASSENA,Hogansburg                              ,NY,39,3.649,44.97394,-74.66324
3707,SPEEDWAY #4704,"I-90, EXIT 154",Albert Lea,MN,425,3.299,43.653102,-93.369291
3718,SPEEDWAY #4706,"I-90, EXIT 265",Chamberlain,SD,455,3.299,43.825993,-99.29419
3719,KEYSTONE TRUCK STOP,US-22 & SR-164,Loretto,PA,14,3.999,39.445474,-83.854496
3725,GENEVA TRUCK STOP,"I-79, EXIT 35/141",Cochranton                              ,PA,240,3.81566666,41.520594,-80.047841
3728,PLAZA 23 TRUCK STOP,"I-787, EXIT 2",Albany,NY,12,3.799,42.657553,-73.790031
3737,JORDAN'S KWIK STOP #70,US-49,West Helena                             ,AR,435,3.399,34.55066,-90.64177
3745,PILOT TRAVEL CENTER #906-TOWN PUMP,"I-90, EXIT 408 & SR-78",Columbus,MT,780,3.58066666,33.183669,-117.297418
3759,EXXON,US-67 & SR-18,Newport,AR,695,4.13233333,33.03251,-116.883798
3767,SIMMONS TRAVEL CENTER,"I-95, EXIT 8 & US-301",Emporia,VA,180,3.099,36.69512,-77.535614
3772,Brake Time Corner Market,"I-25, EXIT 240",Burlington                              ,CO,800,3.499,40.46392,-86.434373
3774,SINCLAIR,"I-70, EXIT 438",Burlington                              ,CO,796,3.889,40.46392,-86.434373
3781,REATTA TRAVEL STOP,"I-76, EXIT 149 & SR-55/CR-81",Crook,CO,475,3.38233333,40.858794,-102.801396
3783,CIRCLE K #2744095,"I-25, EXIT 215",Denver,CO,800,3.299,39.740959,-104.985798
3794,SPEEDWAY #4701,"I-90, EXIT 73",Jackson,MN,425,3.299,43.674163,-95.154128
3817,FAST MARKET,"I-25, EXIT 158",Colorado Springs,CO,803,3.159,38.875356,-104.813228
3843,ONCUE EXPRESS #61,"I-35, EXIT 185 & US-77",Perry,OK,500,3.21566666,40.196907,-100.654675
3868,SHORE STOP #279,US-13,Greenwood,DE,194,3.239,38.806951,-75.590665
3868,SHORE STOP #279,US-13,Greenwood,DE,194,3.259,38.806951,-75.590665
3888,Fics Plaza,"I-90, EXIT 184",Deer Lodge                              ,MT,816,3.519,46.12854,-112.94226
3889,CIRCLE K #2701686,"I-75, EXIT 220",Bradenton,FL,225,3.439,27.491923,-82.58077
3907,SUNOCO,US-46 & SR-93,Palisades Park,NJ,105,3.279,40.84728,-73.996632
3908,SEMINOLE TRUCK STOP,"I-75, EXIT 354",Fort Lauderdale,FL,95,3.699,26.121044,-80.142951
3927,MICCOSUKEE SERVICE PLAZA,"I-75, EXIT 49 & SR-84",Fort Lauderdale                         ,FL,95,3.66566666,27.849255,-82.699951
3936,Uncle Petes Truck  Stop,"I-40, EXIT 239 & US-70/SR-26",Lebanon,TN,460,2.989,36.203187,-86.320404
3946,Fast Lane,US-24 & US-63,Moberly,MO,310,3.469,39.408431,-92.427938
3949,SUNSTOP #337,"I-10/SR-8, EXIT 303 & US-441",Lake City,FL,75,3.699,30.188826,-82.637793
3956,CIRCLE K #2707451,US-27/SR-25 & SR-70,Lake Placid,FL,225,3.399,28.306864,-81.383714
3964,SPEEDWAY #6604,"I-94, EXIT 66",Mattawan,MI,465,3.489,42.21848,-85.787589
3964,SPEEDWAY #6604,"I-94, EXIT 66",Mattawan,MI,465,3.499,42.21848,-85.787589
3970,EXXON - Pilot #1293,"I-30, EXIT 61",Garland,TX,630,2.84233333,32.907748,-96.640291
3973,LOVES TRAVEL STOP #205,"I-35 & I-44, EXIT 137",Oklahoma City,OK,483,3.319,35.4492,-97.48583
3974,LOVES TRAVEL STOP #201,I-40 EXIT 41,Elk City,OK,483,3.12566666,35.412043,-99.410897
3975,SUNSTOP #334,"I-10, EXIT 335 & SR-121",Macclenny,FL,75,3.459,30.27947,-82.122946
3979,PETRO GARY 369,"I-80 & I-94, EXIT 9",Gary,IN,365,3.83066666,40.887328,-96.678697
4006,MISSILE MART #1,US-167 & SR-7,El Dorado,AR,635,3.499,25.928824,-80.186093
4008,BALDWIN TRAVEL PLAZA,"I-94, EXIT 19 & US HWY 63",Baldwin                                 ,WI,295,3.503,27.828938,-82.679794
4025,BP,"I-85, EXIT 21  & US-178",Anderson,SC,30,2.909,34.510773,-82.647178
4035,PILOT TRAVEL CENTER #430,"I-40,  EXIT 84",Russellville,AR,695,3.375,35.272489,-93.143411
4035,PILOT TRAVEL CENTERS #430,"I-40,  EXIT 84",Russellville,AR,695,3.399,35.272489,-93.143411
4062,DUDLEYS TRUCK STOP RESTAURANT,US-220,Rocky Mount,VA,185,3.299,37.023618,-79.882589
4063,STUCKEY'S,"I-59, EXIT 67 & US-49",Hattiesburg,MS,620,2.999,31.302297,-89.309991
4080,SHELL DBA PILOT DEALER #874,US-41,Miami,FL,176,3.699,25.766368,-80.210268
4080,PILOT TRAVEL CENTERS #874,US-41,Miami,FL,176,3.699,25.766368,-80.210268
4101,E-Z MART #4411,HIGHWAY 69 & COBBLESTONE DR,Pryor,OK,560,3.099,45.442085,-122.747254
4113,ASAP GENERAL STORE #330,US-412/SR-15,Enid,OK,500,3.08233333,36.407732,-97.904215
4115,QUIKTRIP #707,"I-85 , EXIT 96",Atlanta,GA,18,3.34066666,33.769805,-84.414581
4119,JET FOOD STORE #82,US-441 & CR-13,Douglas,GA,10,3.44066666,33.684903,-84.660949
4156,PETRO STOPPING CENTER #305,"I-10, EXIT 582",San Antonio,TX,740,3.20733333,29.374994,-98.588562
4161,EL CHEAPO,I-95 & EXIT 76,Midway                                  ,GA,195,3.52566666,31.237081,-81.499646
4164,CIRCLE K #2723897,"I-75, EXIT 138",Thomasville,GA,20,3.23566666,30.840007,-83.978242
4169,TA KINGMAN TRAVEL CENTER,"I-40, EXIT 48 & US-93",Kingman,AZ,910,3.899,35.208957,-114.023342
4171,PETRO SERVE USA #11,US-2 & US-71,Bemidji,MN,355,3.499,47.476672,-94.88026
4172,FLYING J TRAVEL PLAZA #639,"I-90, EXIT 2",Post Falls,ID,970,3.76233333,47.716651,-116.947057
4179,CIRCLE K #2705352,"I-95/SR-405, EXIT 109 & SR-30/SR-21",Port Wentworth                          ,GA,195,3.099,45.18918,-87.121515
4187,FLYING J TRAVEL PLAZA #632,"I-75, EXIT 320",Resaca,GA,285,3.29566666,34.580459,-84.942637
4193,TIGER MART #63,"I-20, EXIT 454",Grand Prairie,TX,630,3.599,32.676959,-97.023474
4199,PWI #574,"I-70, EXIT 193/US-40",Bunker Hill,KS,357,2.959,38.874495,-98.698935
4204,PILOT TRAVEL CENTERS #415,"I-59, EXIT 4",Rising Fawn,GA,285,3.859,34.76008,-85.53108
4204,PILOT TRAVEL CENTER #415,"I-59, EXIT 4",Rising Fawn,GA,285,3.819,34.76008,-85.53108
4211,FLYING J #513,"I-15, EXIT 1",Jean,NV,910,3.73233333,35.77887,-115.32388
4220,KENNETT TRUCK STOP,"I-275, EXIT 16",Lawrenceburg                            ,IN,300,3.424,39.113838,-84.872112
4222,Circle K #4703906,"I-24, EXIT 24 & SR-49",Pleasant View,TN,460,2.899,35.053775,-85.143384
4223,TA PEMBROKE TRAVEL CENTER,"I-90, EXIT 48A",Corfu,NY,38,3.939,42.961275,-78.40261
4223,TA PEMBROKE TRAVEL CENTER,"I-90, EXIT 48A",Corfu,NY,38,3.889,42.961275,-78.40261
4223,TA PEMBROKE TRAVEL CENTER,"I-90, EXIT 48A",Corfu,NY,38,3.829,42.961275,-78.40261
4223,TA PEMBROKE TRAVEL CENTER,"I-90, EXIT 48A",Corfu,NY,38,3.839,42.961275,-78.40261
4227,LOVES TRAVEL STOP #203,"I-40, EXIT 140",Oklahoma City,OK,483,3.35566666,35.393761,-97.602513
4233,QUIKTRIP #7220,"I-20, EXIT 8",Shreveport,LA,745,2.89233333,32.467848,-93.764207
4239,SPEEDWAY #8256,"I-64, EXIT 94 & SR-1958 & US-60",Winchester,KY,410,2.92233333,37.99598,-84.180147
4241,EXXON,"I-285, EXIT 53",Conley,GA,18,3.999,33.639628,-84.332358
4267,CONOCO,US-30 & SR-41,Gap,PA,160,3.799,40.794689,-77.858961
4292,KUM & GO #0032,"I-80/US-6, EXIT 155 & SR-117",Colfax,IA,320,3.08233333,35.087409,-78.128651
4301,TIGER DISCOUNT TRUCKSTOP,"I-94, EXIT 64 & I-94 BUS",Dickinson,ND,807,3.51566666,41.724336,-87.585436
4311,Saveway Truck Plaza,"I-65, EXIT 164 & US-31",Hope Hull,AL,720,3.139,34.711117,-86.65316
4331,KWIK STOP C STORES,US-61/US-151,Dubuque,IA,335,3.559,42.502247,-90.692006
4332,PILOT TRAVEL CENTER #468,"I-57, EXIT 283 & US-24",Gilman,IL,280,3.399,41.878425,-87.628073
4332,PILOT TRAVEL CENTER #468,"I-57, EXIT 283 & US-24",Gilman,IL,280,3.559,41.878425,-87.628073
4332,PILOT TRAVEL CENTER #468,"I-57, EXIT 283 & US-24",Gilman,IL,280,3.439,41.878425,-87.628073
4332,PILOT TRAVEL CENTERS #468,"I-57, EXIT 283 & US-24",Gilman,IL,280,3.459,41.878425,-87.628073
4335,HIGHWAY 20  AUTO TRUCK PLAZA,US-20,Peosta,IA,335,3.489,42.449029,-90.845522
4339,ROAD RANGER #273,I-69E/US-77 & SR-107,Combes,TX,639,3.049,39.292839,-83.044882
4349,ROAD RANGER #144,"I-380, EXIT 68US-20, EXIT 68",Evansdale,IA,565,3.729,42.469635,-92.283092
4363,EL CHEAPO #4,"I-95, EXIT 87",Richmond Hill,GA,195,3.09566666,31.947028,-81.308085
4368,HOODS SERVICE CENTER,"I-44, EXIT 61",Bois D Arc,MO,535,3.074,38.353141,-92.747022
4372,GRADYS TRUCKSTOP,"I-16, EXIT 111",Pulaski                                 ,GA,195,3.46566666,32.237319,-83.48914
4373,KUM & GO #0043,"I-35, EXIT 43 & SR-207/CRG76",New Virginia,IA,320,3.114,28.659236,-81.393222
4389,TAYLOR QUIK-PIK,"I-29, EXIT 75 & US-30",Missouri Valley,IA,486,3.399,41.559142,-95.902428
4395,BREAK TIME #3147,"I-55, EXIT 67 & US-62",Sikeston,MO,275,3.499,36.877202,-89.59053
4417,TA MORIARITY TRAVEL CENTER,"I-40, EXIT 194",Moriarty,NM,580,3.21733333,35.008493,-106.029269
4419,CASEYS #3081,"I-35, EXIT 92 & US-136",Bethany,MO,400,3.06066666,36.61172,-90.06926
4427,CASEYS #2654,"I-80/US-6, EXIT 93 & CR-P28",Stuart,IA,320,3.099,25.747429,-80.345851
4431,CASEYS #2653,"US-63 & US-30, EXIT 202",Toledo,IA,320,3.349,41.989288,-92.580318
4437,UNDERWOOD TRUCK STOP I 80,"I-80, EXIT 17",Underwood                               ,IA,319,3.00066666,41.386605,-95.680976
4441,PILOT TRAVEL CENTERS #51,"I-81 BAILEYTON RD, EXIT 36",Greeneville,TN,405,3.56233333,36.165174,-82.812518
4442,Minuteman Food Mart #58,US-74/US-76,Delco,NC,245,3.50733333,34.319961,-78.226342
4445,TA Rogers,"I-94/US-52, EXIT 207 & SR-101",Rogers,MN,448,3.274,39.499313,-83.148052
4446,LOVES TRAVEL STOP #200,I-40 EXIT 74,Amarillo,TX,585,3.209,35.221849,-101.840963
4451,PRAIRIE JUNCTION TRUCK STOP,"I-29, EXIT 109 & SR-34",Colman,SD,530,3.099,26.170294,-80.100072
4452,CASEYS #2867,US-63 & US-20,Waterloo,IA,380,3.499,42.49261,-92.354009
4458,KUM & GO #1443,"I-80, EXIT 216",Williamsburg,IA,380,3.13066666,41.660597,-92.00714
4460,EXIT 62 TRUCKSTOP,"I-71, EXIT 62 & US-127",Glencoe,KY,415,3.16566666,38.732917,-84.823031
4463,QUIKTRIP #7901,"I-20, EXIT 556 & US-69",Lindale,TX,710,2.80733333,35.032903,-78.105841
4482,FLYING J TRAVEL PLAZA #777,"I-84, EXIT 54(FEDERAL WAY)",Boise,ID,785,3.809,43.945777,-115.884627
4482,FLYING J FUEL STOP #777,"I-84, EXIT 54(FEDERAL WAY)",Boise,ID,785,3.76566666,43.945777,-115.884627
4492,3 MILE CORNER TRUCK STOP,US-2 & US-95,Bonners Ferry,ID,970,3.734,48.696735,-116.318563
4525,STINKER #42,US-12/US-95 & SR-128,Lewiston,ID,970,3.69733333,47.488945,-122.325829
4528,WENATCHEE VALLEY TRUCK STOP,US-97 ALT,Wenatchee,WA,920,4.199,47.42363,-120.326871
4528,WENATCHEE VALLEY TRUCK STOP,US-97 ALT,Wenatchee,WA,920,4.119,47.42363,-120.326871
4528,WENATCHEE VALLEY TRUCK STOP,US-97 ALT,Wenatchee,WA,920,4.089,47.42363,-120.326871
4533,SPEEDWAY #1449,"I-65, EXIT 262B",Birmingham                              ,AL,615,2.97566666,33.530651,-86.800929
4544,BIG CHARLIES TRUCK PLAZA,"I-64, EXIT 282 & US-13",Virginia Beach,VA,130,3.489,36.88141,-76.18557
4555,PILOT TRAVEL CENTERS #406,"I-65, EXIT 22 & US-31A/SR-11",Cornersville,TN,460,3.799,35.386328,-86.872732
4560,FAST STOP TRAVEL CENTERS #1109,"I-15, EXIT 392",Plymouth,UT,835,3.58233333,41.875499,-112.142657
4563,PILOT TRAVEL CENTERS #299,"I-55/I-74/US-51, EXIT 160 & US-150/SR-9",Bloomington                             ,IL,280,3.599,40.47707,-88.956459
4563,PILOT TRAVEL CENTERS #299,"I-55/I-74/US-51, EXIT 160 & US-150/SR-9",Bloomington                             ,IL,280,3.399,40.47707,-88.956459
4563,PILOT TRAVEL CENTER #299,"I-55/I-74/US-51, EXIT 160 & US-150/SR-9",Bloomington                             ,IL,280,3.399,40.47707,-88.956459
4563,PILOT TRAVEL CENTERS #299,"I-55/I-74/US-51, EXIT 160 & US-150/SR-9",Bloomington                             ,IL,280,3.499,40.47707,-88.956459
4563,PILOT TRAVEL CENTER #299,"I-55/I-74/US-51, EXIT 160 & US-150/SR-9",Bloomington                             ,IL,280,3.499,40.47707,-88.956459
4563,PILOT TRAVEL CENTER #299,"I-55/I-74/US-51, EXIT 160 & US-150/SR-9",Bloomington                             ,IL,280,3.599,40.47707,-88.956459
4568,ONVO TRAVEL PLAZA,"I-90, EXIT 28",Fultonville,NY,12,3.199,42.946202,-74.370213
4568,ONVO TRAVEL PLAZA,"I-90, EXIT 28",Fultonville,NY,12,3.159,42.946202,-74.370213
4569,METROPOLIS TRUCK STOP,"I-24, EXIT 37 & US-45",Metropolis,IL,490,3.599,37.147152,-88.691547
4574,Circle K #4701432,"I-74, EXIT 174",Mahomet,IL,280,3.669,40.198435,-88.404904
4582,BIG CHIEF TRUCK STOP,"I-94/US-52, EXIT 61 & US-59/CR-82",Fergus Falls,MN,250,3.23566666,46.285964,-96.068654
4605,PILOT DEALER #898 SADLERS TRUCK STOP,"I-95, EXIT 11B & US-58",Emporia,VA,180,3.799,36.69512,-77.535614
4618,OUTPOST TRAVEL CENTER,"I-20, EXIT 5 & US-80",Greenwood,LA,745,2.899,29.62049,-90.90371
4620,PILOT TRAVEL CENTERS #95,"I-75, EXIT 329 & SR-44",Wildwood                                ,FL,225,3.22566666,40.739651,-73.921678
4620,PILOT TRAVEL CENTER #95,"I-75, EXIT 329 & SR-44",Wildwood                                ,FL,225,3.319,40.739651,-73.921678
4622,TA LEE HI TRAVEL PLAZA,"I-81,  EXIT 195",Lexington,VA,185,3.659,37.782024,-79.443877
4628,QUARLES #4601,US-29/US-17/US-15,Warrenton,VA,60,3.32233333,38.720015,-77.796979
4637,THORNTONS #369 DBA PILOT TRAVEL CENTER #514,"I-55, EXIT 126 & SR-10",Lincoln                                 ,IL,318,3.399,38.884382,-121.238113
4637,THORNTONS #369 DBA PILOT TRAVEL CENTER #514,"I-55, EXIT 126 & SR-10",Lincoln                                 ,IL,318,3.499,38.884382,-121.238113
4637,PILOT TRAVEL CENTER #514 - THORNTONS #369,"I-55, EXIT 126 & SR-10",Lincoln                                 ,IL,318,3.499,38.884382,-121.238113
4637,PILOT TRAVEL CENTER #514 - THORNTONS #369,"I-55, EXIT 126 & SR-10",Lincoln                                 ,IL,318,3.399,38.884382,-121.238113
4642,MARSHAL JUNCTION,"I-70, EXIT 147 & SR-1",Marshall                                ,IL,510,3.199,41.622946,-87.674436
4642,MARSHAL JUNCTION,"I-70, EXIT 147 & SR-1",Marshall                                ,IL,510,3.399,41.622946,-87.674436
4644,CIRCLE K #4706703,"I-80, EXIT 145A",Mokena,IL,290,3.399,41.5331,-87.86872
4644,CIRCLE K #4706703,"I-80, EXIT 145A",Mokena,IL,290,3.339,41.5331,-87.86872
4654,7-ELEVEN #35087,"I-490, EXIT 2 & SR-33 & SR-19",Bergen,NY,190,4.029,43.095434,-77.982934
4655,QUICKLEES TRAVEL CENTER,"I-86, EXIT 30 & CR-20",Belmont,NY,190,3.999,37.526363,-122.28437
4690,PWI #401,"I-20 & I-30, EXIT 1B",Aledo,TX,630,2.799,32.451851,-94.710618
4700,A C TRUCKSTOP,"I-80, EXIT 290",Laramie                                 ,WY,795,3.079,41.313704,-105.602581
4704,THE RIDGE,"I-68/US-219, EXIT 14 & US-40",Accident,MD,165,4.199,39.279283,-76.816081
4707,SMITHTON TRUCKSTOP,"I-70, EXIT 39 & SR-3059",Smithton,PA,165,3.899,40.154113,-79.742255
4729,MINIT MART #600244,"I-70, EXIT 131",Straughn,IN,457,3.859,39.808183,-85.290936
4742,FLYING J TRAVEL PLAZA #684,"I-94, EXIT 1 & SR-16",Beach,ND,807,3.96566666,25.789881,-80.131801
4750,BROOKE TRAVEL PLAZA,"I-80, EXIT 259",West Liberty,IA,380,2.98733333,41.572418,-91.262385
4762,TA MONROE TRAVEL CENTER,"I-75, EXIT 15",Monroe,MI,325,3.349,40.31678,-74.41626
4762,TA MONROE TRAVEL CENTER,"I-75, EXIT 15",Monroe,MI,325,3.249,40.31678,-74.41626
4762,TA MONROE TRAVEL CENTER,"I-75, EXIT 15",Monroe,MI,325,3.369,40.31678,-74.41626
4762,TA MONROE TRAVEL CENTER,"I-75, EXIT 15",Monroe,MI,325,3.299,40.31678,-74.41626
4806,TRACK AND TRAVEL,"I-20, EXIT 406",Weatherford,TX,630,2.91733333,32.745542,-97.779857
4818,PILOT TRAVEL CENTER #350,"I-84 & US-20, EXIT 95",Mountain Home,ID,785,3.799,36.311547,-92.27312
4818,PILOT TRAVEL CENTERS #350,"I-84 & US-20, EXIT 95",Mountain Home,ID,785,3.759,36.311547,-92.27312
4819,Alta Convenience #6333,"I-25, EXIT 11",Trinidad,CO,803,3.399,37.169262,-104.506275
4826,I-20 Truck Stop,"I-20, EXIT 165",Lincoln,AL,615,2.999,33.621234,-86.114688
4827,PETRO BEAUMONT #304,"I-10, EXIT 848",Beaumont,TX,610,3.33066666,30.084818,-94.145006
4837,SHELL,US-10 & SR-210,Motley,MN,522,3.399,47.458177,-96.821635
4856,PILOT TRAVEL CENTER #910- TOWN PUMP,"I-90, EXIT 274 & US-287",Three Forks,MT,786,3.59733333,48.11357,-113.3087
4858,PILOT TRAVEL CENTER #1346,"I-135, EXIT 31",Newton,KS,570,3.3115,38.040521,-97.338792
4858,PILOT DEALER #1346,"I-135, EXIT 31",Newton,KS,570,3.409,38.040521,-97.338792
4860,PILOT TRAVEL CENTER #476,"I-74, EXIT 32 & SR-17",Woodhull,IL,270,3.899,26.168259,-80.100266
4860,PILOT TRAVEL CENTERS #476,"I-74, EXIT 32 & SR-17",Woodhull,IL,270,3.899,26.168259,-80.100266
4872,TA COMMERCE TRAVEL CENTER,"I-85, EXIT 149 & US-441",Commerce,GA,16,3.21566666,34.213044,-83.459508
4874,PWI #110,"I-20, EXIT 112 & FM-1936",Odessa,TX,710,3.049,31.875956,-102.360258
4878,SHELL DBA ONE9 #1426,"I-84, EXIT 35",Nampa                                   ,ID,785,3.374,43.579764,-116.567877
4881,PETRO STOPPING CENTER #14,"I-295, EXIT 56",Bordentown,NJ,230,4.029,40.126888,-74.713343
4885,LOVES TRAVEL STOP #384,"I-70, EXIT 45",Greenville,IL,540,3.689,38.883544,-89.376134
4885,LOVES TRAVEL STOP #384,"I-70, EXIT 45",Greenville,IL,540,3.749,38.883544,-89.376134
4885,LOVES TRAVEL STOP #384,"I-70, EXIT 45",Greenville,IL,540,3.689,38.883544,-89.376134
4885,LOVES TRAVEL STOP #384,"I-70, EXIT 45",Greenville,IL,540,3.689,38.883544,-89.376134
4885,LOVES TRAVEL STOP #384,"I-70, EXIT 45",Greenville,IL,540,3.689,38.883544,-89.376134
4885,LOVES TRAVEL STOP #384,"I-70, EXIT 45",Greenville,IL,540,3.749,38.883544,-89.376134
4887,SUNOCO,"I-80 & I-90, EXIT 3",Wauseon                                 ,OH,550,3.699,41.791167,-80.854071
4894,CLOVERDALE TRAVEL PLAZA,"I-70, EXIT 41 & US-231",Cloverdale,IN,375,3.699,39.522005,-86.799128
4905,HY-MILER #2204,SR-250,Sandusky,OH,550,3.53233333,41.458946,-82.712823
4909,CIRCLE K #2723916,US-441/US-301/US/27/SR-500,Ocala,FL,140,3.459,29.19339,-82.136635
4910,PILOT TRAVEL CENTER #892,"I-70 EXIT 164, & US-50",Green River,UT,835,3.68566666,38.991788,-110.11284
4918,PILOT TRAVEL CENTERS #219,"I-40, EXIT 398",Knoxville,TN,405,3.699,35.973011,-83.969472
4920,TA LAPLACE,"I-10, EXIT 209 & US-5",La Place,LA,600,3.22733333,34.05513,-118.25703
4921,PILOT TRAVEL CENTERS #231,"I-75, EXIT 29",Corbin,KY,410,3.609,36.940324,-84.104856
4927,CIRCLE K #2704886,"I-65, EXIT 205 & US-31/SR-22",Clanton,AL,720,3.20733333,32.839862,-86.622877
4933,VILLAGE TRUCK STOP,"I-81, EXIT 18",Rural Retreat                           ,VA,185,3.299,36.898109,-81.275059
4977,KWIK TRIP #331,SR-54,Wisconsin Rapids,WI,395,3.26233333,44.398361,-89.841477
4981,JOHNNYS MARKET,"I-94, EXIT 110 & US-27",Marshall,MI,385,3.499,27.871473,-82.706863
4983,KWIK TRIP #603,"I-94, EXIT 28 & SR-128",Wilson,WI,451,3.549,39.352892,-83.146967
4996,ZIP TRIP #54,"I-90, EXIT 452",Billings,MT,780,3.59066666,45.774972,-108.55997
5003,TRAILWAY TRUCK STOP,US-301/SR-304,Centreville                             ,MD,22,3.259,34.730238,-86.588226
5006,SUNOCO,US-1/US-9,Linden,NJ,79,3.799,40.627092,-74.233706
5024,I 55 MOTOR PLAZA,"I-55,  EXIT 180",Pevely,MO,540,2.99066666,38.279223,-90.400732
5030,YESWAY #1030,US-63 & E MARY ST,Ottumwa,IA,320,3.399,41.665985,-91.530388
5044,TA MOUNT VERNON TRAVEL CENTER,"I-44, EXIT 46 & SR-39/SR265",Mount Vernon,MO,535,3.409,28.715138,-81.048731
5050,ROCK PORT TRUCK PLAZA,"I-29 & US-136, EXIT 110",Rock Port,MO,400,3.099,39.280857,-94.676141
5056,TREX MART #16,"I-35, EXIT, 61 & US-69",Winston,MO,276,3.119,39.870111,-94.141423
5057,PHILLIPS 66,"I-35, EXIT 54 & I-35 BUS/US-36",Cameron,MO,276,3.099,25.809097,-80.124558
5060,CRAZY FREDS TRUCK SHOP,"I-40, EXIT 44 & US-66",Kingman,AZ,910,3.539,35.208957,-114.023342
5064,CLARK OIL #44,"I-59, EXIT 97",Laurel                                  ,MS,620,2.879,31.695144,-89.139761
5079,FASTLANE TAYLOR 63,US-61 & SR-6,Taylor,MO,494,3.01566666,38.574184,-90.418282
5085,K AN T TRUCKSTOP,"I-79, EXIT 137 & SR-310",Fairmont,WV,165,3.399,39.47713,-80.15882
5111,CIRCLE K #2723385,"I-59, EXIT 67 & US-49/SR-42",Hattiesburg,MS,620,3.149,31.302297,-89.309991
5117,CIRCLE K #4702361,"I-65, EXIT 130 & SR-334",Whitestown,IN,375,3.29233333,36.3944,-119.02207
5128,CASEYS #2769,"I-80, EXIT 220 & SR-149",Williamsburg,IA,380,3.14233333,41.660597,-92.00714
5131,TRAILS END TRUCK STOP,"I-29, EXIT 110 & US-136",Rock Port,MO,486,3.40566666,40.410496,-95.52837
5132,Travel Centers of America,"I-44, EXIT 208 & SR-19",Cuba,MO,574,3.26566666,40.407027,-104.674911
5160,FUEL MART #727,"I-70, EXIT 193",Quaker City                             ,OH,249,3.16566666,39.969646,-81.297357
5163,Blue Sky #733,"US-78, EXIT 81 & SR-178",Belden,MS,742,2.939,40.781975,-83.541177
5165,ONE9 #046,"I-65, EXIT 6 & SR-100",Franklin,KY,415,3.08566666,40.817171,-77.029233
5167,SPEEDWAY #7575,"I-65, EXIT 255",Hobart,IN,290,3.63233333,41.51567,-87.283508
5170,FLYING J #516,"I-76, EXIT 161 & I-70",Breezewood,PA,14,5.099,39.920703,-75.241346
5183,PETRO STOPPING CENTER #74,I-95 & EXIT 106,Kenly,NC,205,3.709,35.006767,-78.815942
5191,NORTH POINT PLAZA,"I-90 & I-94, EXIT 115",Poynette,WI,420,3.17233333,44.96419,-92.557913
5202,Chevron #306185,US-30,Montpelier,ID,825,3.699,42.322532,-111.30152
5203,OASIS TRAVEL CENTER,"I-10, EXIT 53",Robertsdale,AL,715,3.469,30.552996,-87.707908
5207,JJ TRAVEL PLAZA,"I-70, EXIT 70 & US-83",Oakley,KS,525,3.61566666,39.042681,-100.897282
5227,PILOT TRAVEL CENTERS #900,"I-95, EXIT 75",Dunn,NC,205,3.709,35.310395,-78.613831
5230,ONE9 #496,"I-80, EXIT 265",Atalissa,IA,270,3.01566666,41.57177,-91.16652
5232,CM EUNICE,US-190,Eunice,LA,730,3.399,30.495103,-92.446466
5234,SINCLAIR,SR-37,Monett,MO,277,3.29066666,36.8999,-93.937273
5236,FLYING J #875,"I-95,  EXIT 109",Elkton,MD,243,4.199,39.611527,-75.836554
5245,CASEYS #3842,US-36 & US-283,Norton,KS,357,3.15733333,39.784257,-99.903472
5247,EDGERTON TRAVEL PLAZA,"I-90, EXIT 160 & US-51",Edgerton,WI,420,3.199,43.029958,-87.961634
5249,Taylor's Stateline Travel Center,US-67 & SR-278,Neelyville,MO,275,2.999,40.586583,-83.826453
5254,TA CANDLER TRAVEL CENTER,"I-40, EXIT 37",Candler,NC,210,3.799,35.5365,-82.69291
5255,7-ELEVEN #35788,"I-35, EXIT 215",Olathe,KS,400,3.339,38.883639,-94.810546
5258,PT TRUCK STOP,"I-12, EXIT 42",Hammond                                 ,LA,623,3.249,30.501623,-90.46711
5282,CASEYS #3548,US-54 & US-61,Pratt,KS,357,3.14066666,37.645849,-98.736848
5285,TULLO TRUCK STOP,"I-95, EXIT 15E & US-1/US-9",Kearny,NJ,79,3.799,40.75664,-74.113386
5297,ERNIES TRUCK STOP,"I-90,  EXIT 179 & I-90 BUS/SR-17",Moses Lake,WA,920,3.999,47.13014,-119.27808
5297,ERNIES TRUCK STOP,"I-90,  EXIT 179 & I-90 BUS/SR-17",Moses Lake,WA,920,3.949,47.13014,-119.27808
5297,ERNIES TRUCK STOP,"I-90,  EXIT 179 & I-90 BUS/SR-17",Moses Lake,WA,920,4.179,47.13014,-119.27808
5299,Sudden Service #62,"I-65, EXIT 6 & SR-100",Franklin,KY,460,3.084,40.817171,-77.029233
5302,ONE9 #258,"I-81, EXIT 150 & US-220 ALT & US-11",Troutville,VA,185,3.03233333,37.417721,-79.878839
5306,PILOT TRAVEL CENTERS #11,"I-76, EXIT 232",North Lima                              ,OH,573,3.799,40.94839,-80.65896
5309,NEWBORN TRUCK STOP,I-20 EXIT 5,Tallapoosa,GA,48,3.40733333,33.749182,-85.289093
5310,FLYING J #576,"I-35, EXIT 69",Northfield,MN,515,3.859,44.452922,-93.166592
5324,HY-MILER #2245,SR-53,Fremont,OH,550,3.38233333,41.381832,-83.116446
5341,KWIK STAR #1160,"US-75, EXIT 118 & SR-3",Le Mars,IA,408,3.299,26.173507,-80.099685
5349,JET FOOD STORE #17,US-1/SR=4/SR-540 & US-220/SR-47,Wrens,GA,135,3.41566666,33.207016,-82.386062
5363,SPEEDWAY #6767,"I-75, EXIT 20",Manheim,PA,70,4.499,40.093817,-76.29646
5389,FLYING J TRAVEL PLAZA #744,"I-15, EXIT 343",Ogden,UT,835,3.749,41.231877,-111.962366
5391,PWI #605,"I-10, EXIT 378",San Simon,AZ,640,2.959,32.267955,-109.230984
5399,FLYING J TRAVEL PLAZA #750,"I-81 & I-77, EXIT 80",Max Meadows,VA,185,3.549,37.357226,-79.958157
5407,CASEYS #4535,US 81,Concordia                               ,KS,570,2.91233333,39.566516,-97.660611
5414,One9 #1216,"I-10 ,EXIT 200 & SR-84",Eloy,AZ,930,3.199,47.922883,-122.300043
5414,Pride Travel Center dba One9 #1216,"I-10 ,EXIT 200 & SR-84",Eloy,AZ,930,3.199,47.922883,-122.300043
5419,USA TRAVEL CENTER,"I-40, EXIT 48 & US-93",Kingman,AZ,910,3.399,35.208957,-114.023342
5422,K AND H TRUCK PLAZA,"I-57, EXIT 283 & US-24",Gilman,IL,290,3.159,41.878425,-87.628073
5422,K AND H TRUCK PLAZA,"I-57, EXIT 283 & US-24",Gilman,IL,290,3.099,41.878425,-87.628073
5424,WK TRUCK STOP,"US-231 & SR-9001, EXIT 75",Beaver Dam,KY,340,3.399,47.395126,-122.044701
5435,MEADE AUTO AND TRUCK PLAZA,US-54,Meade                                   ,KS,525,3.799,37.238088,-100.36615
5436,PARKWAY MARATHON,"US-79, EXIT 94",Caneyville,KY,415,3.73233333,37.419642,-86.495307
5446,PETRO STOPPING CENTER #308,"I-20, EXIT 8 & SR-526",Shreveport,LA,745,3.17566666,28.306864,-81.383714
5462,BOOZER KWIK STOP,"I-15, EXIT 118",Idaho Falls                             ,ID,825,3.44733333,43.492904,-112.035234
5464,PILOT TRAVEL CENTERS #48,"I-65, EXIT 86",Glendale,KY,415,3.609,37.60173,-85.90552
5474,One9 #88,"I-95/SR-9, EXIT 201 & SR-520",Cocoa,FL,143,3.37566666,47.645228,-122.135327
5477,CHEVRON #383766,"I-5, EXIT 216",Halsey,OR,935,3.099,44.382741,-123.109589
5479,PILOT TRAVEL CENTERS #94,"I-75, EXIT 161",Punta Gorda,FL,225,3.799,26.703792,-80.225028
5479,PILOT TRAVEL CENTER #94,"I-75, EXIT 161",Punta Gorda,FL,225,3.799,26.703792,-80.225028
5491,49ER FUEL CENTER,"I-75, EXIT 49",East Bernstadt                          ,KY,410,2.999,37.191094,-84.117227
5492,BFS FOODS #68,"I-70, EXIT 3",Hancock                                 ,MD,22,4.129,39.705311,-78.17542
5522,ONE9 #301,"I-55,  EXIT 40",Marston,MO,275,3.109,36.516764,-89.608749
5523,TA LIMON TRAVEL CENTER,"I-70, EXIT 359 & US-24",Limon,CO,800,3.92066666,37.226374,-107.70097
5529,FLYING J #549,"I-77, EXIT 100 & 101",Mount Airy,NC,65,3.599,42.804416,-71.563555
5537,HUCKS TRAVEL CENTER #51 DBA FLYING J #889,"I-57/I-64, EXIT 95 & SR-15",Mount Vernon,IL,574,3.459,42.810223,-71.57574
5537,HUCKS TRAVEL CENTER #51 dba FLYING J #889,"I-57/I-64, EXIT 95 & SR-15",Mount Vernon,IL,574,3.499,42.810223,-71.57574
5537,HUCKS TRAVEL CENTER #51 DBA FLYING J #889,"I-57/I-64, EXIT 95 & SR-15",Mount Vernon,IL,574,3.359,42.810223,-71.57574
5537,HUCKS TRAVEL CENTER #51 DBA FLYING J #889,"I-57/I-64, EXIT 95 & SR-15",Mount Vernon,IL,574,3.599,42.810223,-71.57574
5537,HUCKS TRAVEL CENTER #51 dba FLYING J #889,"I-57/I-64, EXIT 95 & SR-15",Mount Vernon,IL,574,3.399,42.810223,-71.57574
5554,Southfork TRUCK STOP,"I-30, EXIT 63 & SR-53",Gurdon,AR,635,3.459,28.372372,-81.503433
5560,MIDWAY TRAVEL PLAZA,I-70 EXIT 121 & US-40,Columbia,MO,310,3.539,38.94726,-92.327555
5569,TA EXPRESS NORWOOD #0450,US-60,Norwood,MO,535,3.449,38.737458,-90.262758
5570,PETRO STOPPING CENTER #310,"I-12, EXIT 40 & US-51 BUS",Hammond,LA,725,3.249,30.501623,-90.46711
5579,SAPP BROS TRAVEL CENTER,US-30,Columbus,NE,486,3.219,41.429316,-97.360115
5592,TA COLUMBIA NORTH,"I-20, EXIT 71 & US-21",Columbia,SC,46,3.439,34.044165,-80.846323
5597,CM LAKE CHARLES FUEL STOP 36,"I-10, EXIT 36 & SR-397",Lake Charles,LA,690,3.299,26.173507,-80.099685
5601,BP,"I-24, EXIT 16",Paducah,KY,490,3.429,37.079097,-88.620251
5603,TA NORTH CANTON TRAVEL CENTER,"I-77, EXIT 111",North Canton,OH,249,3.624,40.87465,-81.402232
5606,FLYING J #511,"I-94, EXIT 147",Mandan,ND,273,3.95233333,46.830288,-100.886016
5607,RICE MART,"I-45 & FM 1603, EXIT 238",Rice,TX,630,3.019,30.017198,-95.437928
5608,SHOP A LOTT  #3,US-84 & US-171,Mansfield                               ,LA,766,3.13566666,32.036354,-93.694242
5613,CHEVRON #381108,"I-82, EXIT 36",Yakima,WA,925,3.999,46.593247,-120.547823
5618,MCCLURE OIL #52,"I-65/US-52, EXIT 140 & SR-32",Lebanon                                 ,IN,375,3.584,26.168259,-80.100266
5649,Fast Stop,"I-10, EXIT 182 & SR-22",Sorrento                                ,LA,623,3.699,39.445474,-83.854496
5651,LOVES TRAVEL STOP #303,"I-64, EXIT 43 & SR-395",Waddy,KY,415,3.749,28.659236,-81.393222
5659,TEX-BEST #526,US-59 & US-281,George West,TX,625,3.299,28.328821,-98.116734
5660,Pride Convenience Store,"I-90, EXIT 51 & I-291",Chicopee,MA,100,3.509,38.901593,-94.353402
5661,TA Express #287,"I-40, EXIT 288 & SR-111",Cookeville,TN,460,3.299,36.156923,-85.500647
5667,PILOT TRAVEL CENTERS #393,"I-40, EXIT 24 & SR-209",Waynesville                             ,NC,210,3.759,34.957745,-77.981698
5669,KWIK TRIP #497,I-90 EXIT 266 & CR-12,Dakota,MN,515,3.474,44.661381,-93.119466
5670,TA MOUNT VERNON TRAVEL CENTER,"I-57 & I-64, EXIT 95",Mount Vernon,IL,574,3.449,41.778929,-87.586543
5670,TA MOUNT VERNON TRAVEL CENTER,"I-57 & I-64, EXIT 95",Mount Vernon,IL,574,3.499,41.778929,-87.586543
5670,TA MOUNT VERNON TRAVEL CENTER,"I-57 & I-64, EXIT 95",Mount Vernon,IL,574,3.539,41.778929,-87.586543
5674,TA MADISON TRAVEL CENTER,"I-20, EXIT 114 & US-441",Madison,GA,16,3.89066666,34.127845,-83.230339
5677,YESWAY #1178,CR-13,Kadoka,SD,506,3.189,43.83227,-101.508081
5691,Pilot Travel Center #666,"I-94, EXIT 30",Benton Harbor,MI,465,3.059,42.111161,-86.45104
5700,BEACON & BRIDGE #18,US-131 BUS,Big Rapids,MI,456,3.559,43.684106,-85.518787
5700,BEACON & BRIDGE #18,US-131 BUS,Big Rapids,MI,456,3.319,43.684106,-85.518787
5700,BEACON & BRIDGE #18,US-131 BUS,Big Rapids,MI,456,3.339,43.684106,-85.518787
5718,TOOT N TOTUM #104,US-287,Dalhart,TX,585,3.199,36.059148,-102.514478
5721,TA BALTIMORE SOUTH TRAVEL CENTER,"I-95, EXIT 41A & SR-175 & US-1",Jessup,MD,22,4.599,27.748934,-80.435578
5729,MENOMONIE FARMERS UNION,"I-94, EXIT 45 & CR-B",Menomonie,WI,295,3.649,44.877545,-91.929709
5730,SCOTTS QUICK STOP,SR-53 & SR-46,Marlette,MI,342,3.399,28.372372,-81.503433
5739,PILOT TRAVEL CENTERS #284,"I-75, EXIT 18",Monroe                                  ,MI,325,3.399,40.31678,-74.41626
5739,PILOT TRAVEL CENTERS #284,"I-75, EXIT 18",Monroe                                  ,MI,325,3.299,40.31678,-74.41626
5739,PILOT TRAVEL CENTERS #284,"I-75, EXIT 18",Monroe                                  ,MI,325,3.559,40.31678,-74.41626
5739,PILOT TRAVEL CENTERS #284,"I-75, EXIT 18",Monroe                                  ,MI,325,3.249,40.31678,-74.41626
5739,PILOT TRAVEL CENTERS #284,"I-75, EXIT 18",Monroe                                  ,MI,325,3.439,40.31678,-74.41626
5751,TA LAKE PARK TRAVEL CENTER,"I-75,  EXIT 2",Lake Park,GA,20,3.31566666,30.683581,-83.180562
5754,ROAD TRIP OASIS PERRY,"I-69, EXIT 105 & SR-52",Perry,MI,406,3.799,47.933455,-122.30648
5754,ROAD TRIP OASIS PERRY,"I-69, EXIT 105 & SR-52",Perry,MI,406,3.699,47.933455,-122.30648
5758,SPEEDY Q MARKET #8206,"I-94, EXIT 274",Port Huron                              ,MI,325,3.899,42.973785,-82.436173
5770,Kwik Trip # 1281,"I-43, EXIT 107",Belgium                                 ,WI,444,3.25566666,43.517311,-87.88653
5771,DUNES AUTO TRUCK PLAZA,"I-94, EXIT 12",Sawyer,MI,465,3.499,43.924812,-84.633107
5771,DUNES AUTO TRUCK PLAZA,"I-94, EXIT 12",Sawyer,MI,465,3.599,43.924812,-84.633107
5774,PJ TRAVEL PLAZA,"I-80, EXIT 192 & SR-880",Loganton,PA,138,3.479,41.032711,-77.303168
5780,BILLS TRUCKSTOP,"I-85, EXIT 86                 ",Linwood                                 ,NC,65,3.449,35.777035,-80.314178
5799,STAPLES OIL,"I-90, EXIT 146",Alden,MN,425,3.299,43.669531,-93.573499
5801,TA WYTHEVILLE TRAVEL CENTER,"I-81, EXIT 72 & I-77, EXIT 41",Wytheville,VA,185,3.519,36.67273,-80.46717
5821,TA PORTLAND TRAVEL CENTER,"I-5,  EXIT 278",Aurora,OR,935,4.03233333,29.908973,-89.941475
5823,ENMARKET #863,"I-95, EXIT 8 & SR-88",Hardeeville,SC,195,3.08233333,39.858746,-104.953112
5830,115 TRUCKSTOP #5001,"I-94, EXIT 115",Marshall,MI,431,3.429,42.270874,-84.955633
5830,115 TRUCKSTOP #5001,"I-94, EXIT 115",Marshall,MI,431,3.499,42.270874,-84.955633
5830,115 TRUCKSTOP #5001,"I-94, EXIT 115",Marshall,MI,431,3.589,42.270874,-84.955633
5842,PETRO STOPPING CENTER #6367,"I-57,  EXIT 335",Monee,IL,290,3.459,41.419139,-87.750859
5842,PETRO STOPPING CENTER #6367,"I-57,  EXIT 335",Monee,IL,290,3.499,41.419139,-87.750859
5842,PETRO STOPPING CENTER #6367,"I-57,  EXIT 335",Monee,IL,290,3.399,41.419139,-87.750859
5860,SPEEDWAY #4610,"I-35, EXIT 59 & SR-21",Faribault,MN,448,3.759,41.151909,-81.386869
5873,SOUTHERN VALLEY COOP,ST 14 BYPASS,Mankato                                 ,MN,425,3.499,44.161276,-93.987847
5901,ROTHSAY TRUCK STOP,"I-94, EXIT 38",Rothsay,MN,341,3.209,46.477424,-96.28599
5903,Circle K #2746447,I-94/US-52 EXIT 127 & US-71/SR-28,Sauk Centre,MN,250,3.189,45.697362,-94.980535
5907,SPEEDWAY #4035,CR-101,Shakopee,MN,448,3.599,44.799968,-93.525551
5909,SINCLAIR,"I-90, EXIT 233",Saint Charles,MN,515,3.529,37.59205,-85.34374
5927,HARRISONBURG TRAVEL CENTER,"I-81,  EXIT 243 & US-11",Harrisonburg,VA,185,2.899,36.970137,-80.71273
5935,WESTHAMPTON VALERO,I-295 EXIT 47A,Mount Holly                             ,NJ,160,3.329,39.995777,-74.786278
5942,EXPRESS MART TRUCK STOP,"I-55, EXIT 185 & US-67/US-61",Barnhart,MO,540,2.99733333,38.337801,-90.406996
5944,LAKE MILLS TRAVEL PLAZA,"I-94, EXIT 259 & SR- 89/CR-G",Lake Mills,WI,420,3.36066666,43.077855,-88.905892
5946,PILOT TRAVEL CENTERS #918,I-90 EXIT 55,Rapid City,SD,506,3.999,44.068767,-103.226164
5949,EXXON,US-59 & LOOP 151,Texarkana                               ,TX,723,3.16566666,33.450855,-94.073677
5951,ROAD RANGER #157,I-64 EXIT 41,Okawville,IL,540,3.799,38.434394,-89.550746
5963,OZONA ONE STOP,"I-10, EXIT 372",Ozona                                   ,TX,710,2.98233333,30.707037,-101.211726
5965,TRUCK TOWNE,I-29 EXIT 47 & SR-46,Beresford                               ,SD,572,3.159,43.077384,-96.777313
5971,WACO TRAVEL CENTER,SR-19,Perry,FL,20,3.699,30.109034,-83.582309
5979,TA LAFAYETTE TRAVEL CENTER,"I-10 & SR-182, EXIT 101",Lafayette,LA,600,3.134,42.211514,-73.376535
5980,THRIFT MART TRUCK PLAZA,"I-85/US-460, EXIT 63A & US-1/US-460 BUS",Petersburg,VA,180,3.199,37.206189,-77.392631
5990,360 TRUCK STOP,US-360,Amelia Court House,VA,180,3.599,37.355115,-77.969092
5996,Fast Stop Travel Centers #1134,"I-80/US-30, EXIT 99 & US-191/SR-373",Rock Springs,WY,827,3.499,41.594274,-109.246355
5999,PILOT TRAVEL STOP #492,"I-30, EXIT 78 & SR-7",Arkadelphia,AR,635,3.559,35.341168,-93.045292
5999,PILOT TRAVEL CENTER #492,"I-30, EXIT 78 & SR-7",Arkadelphia,AR,635,3.499,35.341168,-93.045292
6001,ALLSUPS #2392,US-70 & US-285,Roswell,NM,700,3.199,33.398291,-104.530202
6009,CASEYS #2652,US-65 & US-36,Chillicothe,MO,400,3.289,39.79383,-93.57168
6010,SEGOVIA TRUCK STOP,"I-10, EXIT 465",Junction,TX,739,2.999,30.490039,-99.772233
6018,TA BLOOMINGTON TRAVEL CENTER,"I-55, I-74 & I-39 , EXIT 160",Bloomington,IL,280,3.619,41.760754,-87.586174
6018,TA BLOOMINGTON TRAVEL CENTER,"I-55, I-74 & I-39 , EXIT 160",Bloomington,IL,280,3.649,41.760754,-87.586174
6018,TA BLOOMINGTON TRAVEL CENTER,"I-55, I-74 & I-39 , EXIT 160",Bloomington,IL,280,3.599,41.760754,-87.586174
6018,TA BLOOMINGTON TRAVEL CENTER,"I-55, I-74 & I-39 , EXIT 160",Bloomington,IL,280,3.449,41.760754,-87.586174
6018,TA BLOOMINGTON TRAVEL CENTER,"I-55, I-74 & I-39 , EXIT 160",Bloomington,IL,280,3.539,41.760754,-87.586174
6033,EMERY'S,US-54,Deerfield,MO,277,3.349,37.838249,-94.409553
6037,CRYSTAL OIL,"I-129/US-20/US-75,  EXIT 2",South Sioux City,NE,527,3.549,42.463701,-96.415294
6041,COCKERHAM FUEL CENTER #4,"I-77, EXIT 14 & US-58/US-221",Hillsville,VA,185,3.28233333,36.766247,-80.736564
6047,FAST LANE #26,US-61,Eolia,MO,494,3.099,39.239515,-91.011097
6051,CIRCLE K #2709846,"I-25, EXIT 240",Longmont,CO,800,3.05733333,40.163537,-105.16261
6057,PILOT TRAVEL CENTER #903,"I-70/US-40, EXIT 252",Salina,KS,523,3.759,38.82358,-97.610411
6057,PILOT TRAVEL CENTERS #903,"I-70/US-40, EXIT 252",Salina,KS,523,3.779,38.82358,-97.610411
6058,MOTOR INN AUTO TRUCK STOP,I-75 EXIT 110,Mendon,OH,370,3.199,40.671352,-84.518386
6068,AYERCO #24,US-61 & CR MM,Hannibal,MO,494,3.099,29.623716,-82.377846
6082,Palmetto Truck Plaza,US-27/SR-25 & SR-826,Hialeah,FL,95,3.399,25.929422,-80.124547
6083,BP,"I-35, EXIT 33",Holt                                    ,MO,400,3.049,40.115035,-95.211237
6087,BREAK TIME #3173,US-54 & CR-HH,Fulton,MO,310,3.299,37.162683,-91.118462
6093,ONE9 #901,"I-80 & US-183, EXIT 257",Elm Creek,NE,330,2.96566666,40.887328,-96.678697
6096,Waverly Travel Center,US-23,Waverly                                 ,OH,315,3.41566666,39.122141,-82.988132
6097,SAPP BROS TRAVEL CENTER,"I-80, EXIT 263",Elm Creek,NE,330,3.18733333,40.750546,-99.346291
6106,TA HUNTINGTON,"I-84, EXIT 353",Huntington,OR,982,3.639,33.678349,-117.999037
6111,HAWGS EXXON,US-167/SR-25,Batesville                              ,AR,418,3.359,35.765873,-91.623262
6150,CIRCLE K #2723707,"I-81,  EXIT 150",Troutville,VA,65,3.06566666,37.417721,-79.878839
6154,TA MOBILE TRAVEL CENTER,"I-10,  EXIT 4",Grand Bay,AL,715,3.13566666,30.468937,-88.344267
6164,PILOT TRAVEL CENTER #268,"I-80/US-6, EXIT 284",Walcott,IA,270,3.859,41.586548,-90.774179
6164,PILOT TRAVEL CENTERS #268,"I-80/US-6, EXIT 284",Walcott,IA,270,3.88566666,41.586548,-90.774179
6165,TEMP STOP #117,I-70 & GRAIN VALLEY RD EXIT 24,Grain Valley,MO,400,2.959,39.017004,-94.208181
6167,PILOT TRAVEL CENTERS #167,US-71,Nevada,MO,277,3.49566666,37.840428,-94.326905
6172,SPEEDWAY #2319,"I-96, EXIT 77",Portland,MI,431,3.699,41.58463,-72.624362
6172,SPEEDWAY #2319,"I-96, EXIT 77",Portland,MI,431,3.549,41.58463,-72.624362
6173,PILOT TRAVEL CENTERS #21,"I-94, EXIT 167",Dexter,MI,325,3.659,42.38265,-83.959341
6173,PILOT TRAVEL CENTERS #21,"I-94, EXIT 167",Dexter,MI,325,3.599,42.38265,-83.959341
6173,PILOT TRAVEL CENTERS #21,"I-94, EXIT 167",Dexter,MI,325,3.579,42.38265,-83.959341
6173,PILOT TRAVEL CENTERS #21,"I-94, EXIT 167",Dexter,MI,325,3.649,42.38265,-83.959341
6175,ONVO TRAVEL PLAZA - MIFFLINTOWN,US-322/US-22 & SR-35,Mifflintown,PA,138,3.479,39.445474,-83.854496
6179,HENDERSON TRAVEL PLAZA,"I-10, EXIT 115 & SR-347",Breaux Bridge                           ,LA,690,3.38566666,30.282437,-91.902052
6180,Circle #4703923,"I-24, EXIT 180B & US-27",Chattanooga,TN,285,2.78566666,35.091981,-85.234979
6182,Exxon,"I-20, EXIT 205 & SR-46",Heflin,AL,587,3.01566666,28.734777,-81.117728
6188,SIGNAL FOOD STORE #112,US-65 & SR-J,Ozark,MO,535,2.999,37.056832,-93.228205
6198,DAVIS TRAVEL CENTER #102,"I-95/US-301, EXIT 33 & SR-602",Stony Creek,VA,180,3.06566666,36.3944,-119.02207
6200,KWIK FILL #388,"I-80, EXIT 29 & SR-8",Harrisville,PA,165,3.404,40.794689,-77.858961
6206,PETRO PORTAGE,"I-90 & I-94, EXIT 108-A",Portage,WI,420,3.80733333,44.96419,-92.557913
6212,MR FUEL,"I-55, EXIT 180",Pevely,MO,540,3.01566666,38.279223,-90.400732
6214,PIONEER Travel Plaza,"I-41, EXIT 60 & SR-145",Richfield,WI,444,3.21566666,27.639032,-80.488942
6215,FUEL HUB,"I-87, EXIT 21B",West Coxsackie,NY,12,3.599,42.36064,-73.81679
6218,LOVES TRAVEL STOP #215,"I-40, EXIT 16 & US-40 BUS/US-66",Gallup,NM,580,3.43733333,35.535527,-108.756658
6219,SCHATZ CROSSROADS,US-2 /US-52,Minot,ND,452,3.549,48.227693,-101.300918
6221,LOVES TRAVEL STOP #214,I-10 EXIT 37,El Paso,TX,640,3.07566666,31.818409,-106.488793
6222,QUIKTRIP #236,"I-29/US-71, EXIT 18 & SR-92",Platte City,MO,400,2.999,39.352321,-94.766581
6227,MARLOWS FUEL CENTER,"I-20, EXIT 479",Dallas                                  ,TX,630,3.24066666,32.736212,-96.784359
6229,FUEL MART #764,"I-70, EXIT 66 & SR- 54",South Vienna                            ,OH,315,3.129,28.194327,-82.593124
6232,OASIS TRUCK STOP,"I-44 & SR-133, MM 145",Richland,MO,416,3.324,40.739651,-73.921678
6242,TA FORISTELL TRAVEL CENTER,"I-70, EXIT 203",Foristell,MO,540,3.019,38.810595,-90.964996
6243,GARDEN INN TRAVEL PLAZA,US-60/US-63,Cabool,MO,535,3.299,37.126311,-92.103314
6251,BREAUX BRIDGE VALERO #1408,"I-10 & SR-347, EXIT 115",Breaux Bridge,LA,730,3.499,39.298879,-78.437016
6252,PILOT TRAVEL CENTERS #12,I-80 & I-90 EXIT 71,Perrysburg,OH,550,3.759,42.223034,-72.969046
6258,CASEYS #6342,"I-29, EXIT 144 & US-169",Saint Joseph,MO,400,3.169,39.765776,-94.81477
6271,TA DENTON TRAVEL CENTER,"I-35, EXIT 471 & US-77",Denton,TX,630,3.254,30.200761,-98.172894
6275,TA SEATTLE EAST TRAVEL CENTER,"I-90, EXIT 34",North Bend,WA,962,3.959,47.498745,-121.79543
6275,TA SEATTLE EAST TRAVEL CENTER,"I-90, EXIT 34",North Bend,WA,962,3.899,47.498745,-121.79543
6275,TA SEATTLE EAST TRAVEL CENTER,"I-90, EXIT 34",North Bend,WA,962,3.859,47.498745,-121.79543
6284,7-ELEVEN #40513,I-90/80-IN TOLL RD MM 22W,Portage,IN,365,3.999,41.584252,-87.183278
6286,APPLE MARKET #526,"I-64, EXIT 94",Winchester,KY,410,2.91566666,37.99598,-84.180147
6290,FUEL KING NAPOLEON TRAVEL CENTER,"US-6/US-24/SR/CR-3, EXIT 41",Napoleon,OH,550,3.439,41.384492,-84.17163
6293,PETRO STOPPING CENTER #313,"I-40, EXIT 79",Milan,NM,580,3.57066666,35.205218,-107.894983
6296,GRAY TRUCK STOP,US-71/US-136,Maryville,MO,400,3.26566666,40.348159,-94.876908
6299,HWY 34 TRUCKSTOP,"US-34, EXIT 258",West Burlington                         ,IA,345,3.374,40.823705,-91.176371
6305,I-95 Fuel Stop,"I-95, EXIT 126 & US-17/US-1",Fredericksburg,VA,180,3.264,38.296804,-77.482857
6307,QUIKTRIP #608,"I-70, MID RIVERS MALL",Saint Peters,MO,540,2.904,38.796075,-90.611532
6308,Pilot Travel Centers #354,"I-64, EXIT 28",Simpsonville,KY,415,3.759,38.218156,-85.353904
6309,WINNERS CIRCLE #1,"I-30 & US-270, EXIT 98A",Malvern,AR,695,3.35233333,45.56069,-122.56348
6310,CIRCLE K #2707515,US-27/SR-25 & US-98/US-700/SR-700/SR-66,Sebring,FL,140,3.389,27.492041,-81.454995
6315,AYERCO #25,US-24,Taylor,MO,494,3.01566666,39.9381,-91.52377
6318,Chisholm Corner #15,"I-35, EXIT 72 & US-19",Pauls Valley                            ,OK,569,3.38733333,34.734768,-97.237316
6326,KANZA TRAVEL PLAZA,"I-35, EXIT 231 AND US-177",Braman,OK,500,3.02733333,36.923433,-97.334251
6327,PETRO STOPPING CENTER #312,"I-40 & I-75, EXIT 369",Knoxville,TN,405,3.42566666,36.0148,-83.970819
6330,TA EDINBURG TRAVEL CENTER,I-69C/US-281 & FM-2812,Edinburg,TX,639,3.01066666,26.386175,-98.148773
6334,231 PLAZA AND TRUCK STOP,US-231/SR-75 & SR-20,Youngstown,FL,20,3.494,28.306864,-81.383714
